[

  null,
  null,
  null,
  null,
  null,
  null,
  null,
  null,
  null,
  null

,

  null,
  null,
  null,
  null,
  null,
  null,
  null,
  {
    "name": "Sonu Electrical And Electro...",
    "phone": "+(91)-9899857199",
    "address": "Shop Number 26, Masjid Road, Bhogal, Delhi - 110014, Near-Shai Hospital",
    "loc": {
      "type": "Point",
      "coordinates": [
        77.247642,
        28.581608
      ]
    },
    "city": "Delhi",
    "mobile": "9899857199"
  },
  null,
  null

,

  null,
  null,
  null,
  null,
  null,
  null,
  null,
  null,
  null,
  null

,

  null,
  null,
  null,
  null,
  null,
  null,
  null,
  null,
  null,
  null

,

  null,
  null,
  null,
  null,
  null,
  null,
  null,
  null,
  null,
  null

,

  null,
  null,
  null,
  null,
  null,
  null,
  {
    "name": "Vandana Enterprises",
    "phone": "+(91)-9818345294",
    "address": "D-115 & 116, Jail Road, Fateh Nagar, Delhi - 110018, Near Gurudwara",
    "loc": {
      "type": "Point",
      "coordinates": [
        77.099494,
        28.629586
      ]
    },
    "city": "Delhi",
    "mobile": "9818345294"
  },
  null,
  null,
  null

,

  null,
  null,
  null,
  null,
  null,
  null,
  null,
  null,
  null,
  null

,

  null,
  null,
  null,
  {
    "name": "Techno Life",
    "phone": "+(91)-9711861291",
    "address": "Scf 92, Main Market, Gurgaon Sector 14, Gurgaon - 122001, Near Om Sweets",
    "loc": {
      "type": "Point",
      "coordinates": [
        77.047706,
        28.473905
      ]
    },
    "city": "Delhi",
    "mobile": "9711861291"
  },
  null,
  null,
  null,
  null,
  null,
  null

,

  null,
  null,
  null,
  null,
  null,
  null,
  null,
  null,
  null,
  null

,

  null,
  null,
  null,
  null,
  null,
  null,
  null,
  null,
  null,
  null

,

  null,
  null,
  null,
  null,
  null,
  null,
  null,
  null,
  null,
  null

,

  null,
  null,
  null,
  null,
  null,
  null,
  null,
  null,
  null,
  null

,

  null,
  {
    "name": "Jain Electronics",
    "phone": "+(91)-9899476869",
    "address": "9/4, Mandir Wali Gali, Yusuf Sarai-Green Park, Delhi - 110016, Near mandir",
    "loc": {
      "type": "Point",
      "coordinates": [
        77.206847,
        28.561317
      ]
    },
    "city": "Delhi",
    "mobile": "9899476869"
  },
  null,
  null,
  null,
  null,
  {
    "name": "OHRISONS",
    "phone": "+(91)-9213372913",
    "address": "E-28, Hauz Khas, Delhi - 110016, Hauz Khas Market",
    "loc": {
      "type": "Point",
      "coordinates": [
        77.20758,
        28.550938
      ]
    },
    "city": "Delhi",
    "mobile": "9213372913"
  },
  null,
  null,
  {
    "name": "Perfect Aircon",
    "phone": "+(91)-9312501216",
    "address": "Green Park, Delhi - 110016",
    "loc": {
      "type": "Point",
      "coordinates": [
        77.204182,
        28.557235
      ]
    },
    "city": "Delhi",
    "mobile": "9312501216"
  }

,

  null,
  null,
  null,
  null,
  null,
  null,
  null,
  null,
  {
    "name": "Rana Electronics",
    "phone": "+(91)-9868280400",
    "address": "Qutab Institutional Area, Delhi - 110016, Near Main Bus Stop",
    "loc": {
      "type": "Point",
      "coordinates": [
        77.204048,
        28.55385
      ]
    },
    "city": "Delhi",
    "mobile": "9868280400"
  },
  null

,

  null,
  null,
  null,
  null,
  {
    "name": "Audio Vision Electronics",
    "phone": "+(91)-9015116217",
    "address": "Yusuf Sarai-Green Park, Delhi - 110016",
    "loc": {
      "type": "Point",
      "coordinates": [
        77.207681,
        28.560165
      ]
    },
    "city": "Delhi",
    "mobile": "9015116217"
  },
  {
    "name": "Goel Electronics",
    "phone": "+(91)-9718808675",
    "address": "Yusuf Sarai-Green Park, Delhi - 110016",
    "loc": {
      "type": "Point",
      "coordinates": [
        77.2072493,
        28.5614372
      ]
    },
    "city": "Delhi",
    "mobile": "9718808675"
  },
  {
    "name": "Divya Electronics & mobile rep...",
    "phone": "+(91)-9818852163",
    "address": "65/1, Gautam Nagar Road, Yusuf Sarai-Green Park, Delhi - 110016, Neat PNB ATM",
    "loc": {
      "type": "Point",
      "coordinates": [
        77.208388,
        28.560887
      ]
    },
    "city": "Delhi",
    "mobile": "9818852163"
  },
  null,
  {
    "name": "KBM ELECTRONICS",
    "phone": "+(91)-8588859761",
    "address": "20/1-2, Main Road, Green Park, Delhi - 110016, Near -Gurudwara",
    "loc": {
      "type": "Point",
      "coordinates": [
        77.206925,
        28.560262
      ]
    },
    "city": "Delhi",
    "mobile": "8588859761"
  },
  null

,

  {
    "name": "Ganga Electronics & Electricals",
    "phone": "+(91)-9810198872",
    "address": "Shop no-138/1, Main Mkt, Main Gali, Katwaria Sarai, Delhi - 110016, Nr Kutub Hotel",
    "loc": {
      "type": "Point",
      "coordinates": [
        77.188662,
        28.538443
      ]
    },
    "city": "Delhi",
    "mobile": "9810198872"
  },
  {
    "name": "Shine Line Electronics",
    "phone": "+(91)-9810115845",
    "address": "J88/1, Katwaria sarai market, Katwaria Sarai, Delhi - 110016, Besides raj pharmacy",
    "loc": {
      "type": "Point",
      "coordinates": [
        77.185738,
        28.542178
      ]
    },
    "city": "Delhi",
    "mobile": "9810115845"
  },
  null,
  null,
  {
    "name": "Croma",
    "phone": "+(91)-7207666000",
    "address": "D-14, South Extension 2, Delhi - 110049, Near Mcdonalds",
    "loc": {
      "type": "Point",
      "coordinates": [
        77.217611,
        28.568407
      ]
    },
    "city": "Delhi",
    "mobile": "7207666000"
  },
  null,
  null,
  null,
  null,
  {
    "name": "Bobby Trading Co",
    "phone": "+(91)-9818400613",
    "address": "88, Shahpur Jat, Delhi - 110049",
    "loc": {
      "type": "Point",
      "coordinates": [
        77.21394,
        28.549064
      ]
    },
    "city": "Delhi",
    "mobile": "9818400613"
  }

,

  {
    "name": "R V Electronics",
    "phone": "+(91)-9811474017",
    "address": "T1/B, Shahpur Jat, Delhi - 110049, Nr Ramu Sweets",
    "loc": {
      "type": "Point",
      "coordinates": [
        77.21394,
        28.549064
      ]
    },
    "city": "Delhi",
    "mobile": "9811474017"
  },
  {
    "name": "Mohyal Air Conditioning & Co",
    "phone": "+(91)-9811551471",
    "address": "Shop no- 109/2, Main Market, Safdarjung Enclave, Delhi - 110029, Arjun Nagar, Near Mata Mandir",
    "loc": {
      "type": "Point",
      "coordinates": [
        77.197875,
        28.561822
      ]
    },
    "city": "Delhi",
    "mobile": "9811551471"
  },
  null,
  null,
  null,
  null,
  null,
  null,
  null,
  null

,

  null,
  null,
  null,
  null,
  {
    "name": "A S Asia Electronics",
    "phone": "+(91)-9560433405",
    "address": "18-B, Radha Krishna Building, Gautam Nagar, Delhi - 110049, Radha Krishna bulding",
    "loc": {
      "type": "Point",
      "coordinates": [
        77.214203,
        28.562953
      ]
    },
    "city": "Delhi",
    "mobile": "9560433405"
  },
  null,
  {
    "name": "ELECTRO ENTERPRISES",
    "phone": "+(91)-9871410898",
    "address": "113-B,, Safdarjung Enclave, Delhi - 110029, Near Chhota Gurudwara",
    "loc": {
      "type": "Point",
      "coordinates": [
        77.202613,
        28.562458
      ]
    },
    "city": "Delhi",
    "mobile": "9871410898"
  },
  null,
  {
    "name": "Brand Refrigeration & Air Cond...",
    "phone": "+(91)-9811969961",
    "address": "10, Shanti Niwas, Safdarjung Enclave, Delhi - 110029, Arjun Ngr",
    "loc": {
      "type": "Point",
      "coordinates": [
        77.199043,
        28.56518
      ]
    },
    "city": "Delhi",
    "mobile": "9811969961"
  },
  {
    "name": "S R Electricals",
    "phone": "+(91)-9313335083",
    "address": "62a, Safdarjung Enclave, Delhi - 110029, Humayu Pur",
    "loc": {
      "type": "Point",
      "coordinates": [
        77.199043,
        28.56518
      ]
    },
    "city": "Delhi",
    "mobile": "9313335083"
  }

,

  null,
  null,
  {
    "name": "Jaggarwal Electronics",
    "phone": "+(91)-9990084614",
    "address": "S No-9-A, Gautam Nagar, Delhi - 110049, Opp Radha Krishna Mandir",
    "loc": {
      "type": "Point",
      "coordinates": [
        77.213023,
        28.558969
      ]
    },
    "city": "Delhi",
    "mobile": "9990084614"
  },
  {
    "name": "Desmesh Air Conditioner.",
    "phone": "+(91)-9899525111",
    "address": "130b/S No 5., ., Gautam Nagar, Delhi - 110049, Nr Chota Gurudwara.",
    "loc": {
      "type": "Point",
      "coordinates": [
        77.210183,
        28.56042
      ]
    },
    "city": "Delhi",
    "mobile": "9899525111"
  },
  {
    "name": "Navair ENT",
    "phone": "+(91)-9810003818",
    "address": "L-62, Safdarjung Enclave, Delhi - 110029, Humayunpur",
    "loc": {
      "type": "Point",
      "coordinates": [
        77.199043,
        28.56518
      ]
    },
    "city": "Delhi",
    "mobile": "9810003818"
  },
  null,
  {
    "name": "Murthy Electronics",
    "phone": "+(91)-9810530131",
    "address": "117-A, Grd Flr, Safdarjung Enclave, Delhi - 110029, Arjun Ngr",
    "loc": {
      "type": "Point",
      "coordinates": [
        77.195324,
        28.563473
      ]
    },
    "city": "Delhi",
    "mobile": "9810530131"
  },
  null,
  {
    "name": "Nitin Electronics",
    "phone": "+(91)-9310854554",
    "address": "170 B, Shahpur Jat, Shahpur Jat, Delhi - 110049, Old chopal",
    "loc": {
      "type": "Point",
      "coordinates": [
        77.214667,
        28.548333
      ]
    },
    "city": "Delhi",
    "mobile": "9310854554"
  },
  {
    "name": "M. K. Show",
    "phone": "+(91)-9654403336",
    "address": "K-128, Mohammadpur market, Mohammad Pur-Bhikaji Cama Place, Delhi - 110066, Near bikaji cama place",
    "loc": {
      "type": "Point",
      "coordinates": [
        77.189167,
        28.561833
      ]
    },
    "city": "Delhi",
    "mobile": "9654403336"
  }

,

  {
    "name": "Sameer Electronics",
    "phone": "+(91)-9810197749",
    "address": "268/F-1, Hauz rani market, Malviya Nagar, Delhi - 110017, Behind hauz rani bus stop",
    "loc": {
      "type": "Point",
      "coordinates": [
        77.202667,
        28.543
      ]
    },
    "city": "Delhi",
    "mobile": "9810197749"
  },
  null,
  {
    "name": "S D Airconditioning",
    "phone": "+(91)-9810651462",
    "address": "Kidwai Nagar, Delhi - 110023, West",
    "loc": {
      "type": "Point",
      "coordinates": [
        77.208726,
        28.571708
      ]
    },
    "city": "Delhi",
    "mobile": "9810651462"
  },
  {
    "name": "K S Electricals",
    "phone": "+(91)-9313976402",
    "address": "274,Basement, Shop No 3, Main Road, Ndse, Delhi - 110049, Lila Ram Mkt,Masjid Moth",
    "loc": {
      "type": "Point",
      "coordinates": [
        77.220167,
        28.5635
      ]
    },
    "city": "Delhi",
    "mobile": "9313976402"
  },
  null,
  null,
  null,
  {
    "name": "M K Show",
    "phone": "+(91)-8826663659",
    "address": "K-128, Ranjit Sadan, Mohammadpur, Delhi - 110066, behind Bhikaji Cama Place",
    "loc": {
      "type": "Point",
      "coordinates": [
        77.186128,
        28.565147
      ]
    },
    "city": "Delhi",
    "mobile": "8826663659"
  },
  null,
  null

,

  null,
  null,
  null,
  null,
  null,
  null,
  null,
  null,
  null,
  null

,

  null,
  null,
  null,
  {
    "name": "Saini Electrical & G Store",
    "phone": "+(91)-9810522096",
    "address": "Kotla Mubarakpur, New Delhi, Gurudwara Road, Kotla Mubarakpur, Delhi - 110003, near south ex",
    "loc": {
      "type": "Point",
      "coordinates": [
        77.224905,
        28.57173
      ]
    },
    "city": "Delhi",
    "mobile": "9810522096"
  },
  null,
  null,
  null,
  {
    "name": "Allex Electronics",
    "phone": "+(91)-9910193941",
    "address": "Shop no. C-1, C-Block, Malviya Nagar, Delhi - 110017, Opposite Main Market",
    "loc": {
      "type": "Point",
      "coordinates": [
        77.211875,
        28.537038
      ]
    },
    "city": "Delhi",
    "mobile": "9910193941"
  },
  null,
  null

,

  null,
  null,
  null,
  null,
  null,
  null,
  null,
  null,
  null,
  null

,

  null,
  null,
  null,
  null,
  {
    "name": "Yash electronics",
    "phone": "+(91)-8373988086",
    "address": "D-11 mohan Singh mkt., RK Puram Sector 6, Delhi - 110022",
    "loc": {
      "type": "Point",
      "coordinates": [
        77.176333,
        28.566333
      ]
    },
    "city": "Delhi",
    "mobile": "8373988086"
  },
  null,
  null,
  null,
  {
    "name": "RPGS Electred Pvt Ltd",
    "phone": "+(91)-8506091018",
    "address": "D-50, Mohan Singh Market, RK Puram Sector 6, Delhi - 110022, Opposite - sangam Cinema",
    "loc": {
      "type": "Point",
      "coordinates": [
        77.176583,
        28.5659
      ]
    },
    "city": "Delhi",
    "mobile": "8506091018"
  },
  {
    "name": "Muskan Electronics",
    "phone": "+(91)-9811889951",
    "address": "Shop No-27, Bhikaji Cama Place, Delhi - 110066, Sec-1 , R K Puram, Kashmiri Mkt,",
    "loc": {
      "type": "Point",
      "coordinates": [
        77.180841,
        28.565336
      ]
    },
    "city": "Delhi",
    "mobile": "9811889951"
  }

,

  null,
  null,
  null,
  null,
  null,
  {
    "name": "Sai Electronics",
    "phone": "+(91)-9871037227",
    "address": "Sho No 7, Sadiq Nagar, Delhi - 110049, Sanwal Ngr, Behind S K Sweet, Hudco Place, A V Ngr",
    "loc": {
      "type": "Point",
      "coordinates": [
        77.227094,
        28.557715
      ]
    },
    "city": "Delhi",
    "mobile": "9871037227"
  },
  null,
  null,
  null,
  null

,

  null,
  {
    "name": "K C SAINI ELECTRIC STORE",
    "phone": "+(91)-8130921023",
    "address": "1566, Gurudwara road, Kotla Mubarakpur, Delhi - 110003, Near Ring Road",
    "loc": {
      "type": "Point",
      "coordinates": [
        77.223428,
        28.569475
      ]
    },
    "city": "Delhi",
    "mobile": "8130921023"
  },
  null,
  {
    "name": "Rao Electronics Begumpur",
    "phone": "+(91)-9868542362",
    "address": "Malviya Nagar, Delhi - 110017, Main Market, Begumpur",
    "loc": {
      "type": "Point",
      "coordinates": [
        77.212636,
        28.535747
      ]
    },
    "city": "Delhi",
    "mobile": "9868542362"
  },
  null,
  {
    "name": "Metro Appliances",
    "phone": "+(91)-9560034281",
    "address": "K-53, Gurudwara Rd, Kotla Mubarakpur, Delhi - 110003, Near Gurudwara",
    "loc": {
      "type": "Point",
      "coordinates": [
        77.222502,
        28.574149
      ]
    },
    "city": "Delhi",
    "mobile": "9560034281"
  },
  {
    "name": "Ruby Refrigeration & Aircondit...",
    "phone": "+(91)-9810669677",
    "address": "22-V, Netaji Nagar, Delhi - 110023, Main Mkt,Bh S  N Bus Depot",
    "loc": {
      "type": "Point",
      "coordinates": [
        77.186805,
        28.576758
      ]
    },
    "city": "Delhi",
    "mobile": "9810669677"
  },
  {
    "name": "Singh electronics",
    "phone": "+(91)-9650587571",
    "address": "Shop number-D16, Sector-6,Mohan singh market, RK Puram Sector 6, Delhi - 110022",
    "loc": {
      "type": "Point",
      "coordinates": [
        77.176333,
        28.5665
      ]
    },
    "city": "Delhi",
    "mobile": "9650587571"
  },
  {
    "name": "R k electronics",
    "phone": "+(91)-9810317996",
    "address": "Shop no D50, RK Puram Sector 6, Delhi - 110022",
    "loc": {
      "type": "Point",
      "coordinates": [
        77.176278,
        28.566375
      ]
    },
    "city": "Delhi",
    "mobile": "9810317996"
  },
  {
    "name": "Aggarwal electronics",
    "phone": "+(91)-9818797089",
    "address": "shop no.5, Gurudwara road, Kotla Mubarakpur, Delhi - 110003, Near gurudwara",
    "loc": {
      "type": "Point",
      "coordinates": [
        77.22677,
        28.57528
      ]
    },
    "city": "Delhi",
    "mobile": "9818797089"
  }

,

  null,
  null,
  {
    "name": "Electronics India",
    "phone": "+(91)-9560915782",
    "address": "T-61 AB, Main mkt, Malviya Nagar, Delhi - 110017, Khirki extn",
    "loc": {
      "type": "Point",
      "coordinates": [
        77.214333,
        28.532167
      ]
    },
    "city": "Delhi",
    "mobile": "9560915782"
  },
  null,
  null,
  null,
  null,
  null,
  null,
  null

,

  {
    "name": "Dass Electronics",
    "phone": "+(91)-9210465894",
    "address": "765, Gurudwara Rd, Kotla Mubarakpur, Delhi - 110003",
    "loc": {
      "type": "Point",
      "coordinates": [
        77.22672,
        28.57472
      ]
    },
    "city": "Delhi",
    "mobile": "9210465894"
  },
  null,
  null,
  null,
  null,
  null,
  null,
  null,
  null,
  null

,

  null,
  {
    "name": "Ishan ENT",
    "phone": "+(91)-9891656620",
    "address": "Je-4, Main Rd, Malviya Nagar, Delhi - 110017, Khirki Extn",
    "loc": {
      "type": "Point",
      "coordinates": [
        77.212636,
        28.535747
      ]
    },
    "city": "Delhi",
    "mobile": "9891656620"
  },
  null,
  {
    "name": "Arora Electronics",
    "phone": "+(91)-9818482738",
    "address": "252-A, Near Panchshee Shoping Complex, Ndse, Delhi - 110049, Shahpur Jat,Asain Games Village",
    "loc": {
      "type": "Point",
      "coordinates": [
        77.218532,
        28.572292
      ]
    },
    "city": "Delhi",
    "mobile": "9818482738"
  },
  null,
  {
    "name": "Arctic Aircon",
    "phone": "+(91)-9810202670",
    "address": "S-20, Malviya Nagar, Delhi - 110017, Khirki Extn",
    "loc": {
      "type": "Point",
      "coordinates": [
        77.212636,
        28.535747
      ]
    },
    "city": "Delhi",
    "mobile": "9810202670"
  },
  {
    "name": "Sonal ENT",
    "phone": "+(91)-9810338448",
    "address": "159, Near Mcd School, Malviya Nagar, Delhi - 110017, Savitri Ngr",
    "loc": {
      "type": "Point",
      "coordinates": [
        77.212636,
        28.535747
      ]
    },
    "city": "Delhi",
    "mobile": "9810338448"
  },
  {
    "name": "N K Airconditioners",
    "phone": "+(91)-9871284817",
    "address": "T-265/8, Kotla Mubarakpur, Delhi - 110003, Nr Gurudwara Rd",
    "loc": {
      "type": "Point",
      "coordinates": [
        77.222502,
        28.574149
      ]
    },
    "city": "Delhi",
    "mobile": "9871284817"
  },
  null,
  null

,

  null,
  {
    "name": "Balaji Electronics",
    "phone": "+(91)-8802975094",
    "address": "D-17, RK Puram Sector 6, Delhi - 110022, Mohansingh Mkt",
    "loc": {
      "type": "Point",
      "coordinates": [
        77.1762068706,
        28.5663740094
      ]
    },
    "city": "Delhi",
    "mobile": "8802975094"
  },
  {
    "name": "M K Show",
    "phone": "+(91)-9953666601",
    "address": "Shop no 128, Main Market Mohammadpur, Mohammad Pur-Bhikaji Cama Place, Delhi - 110066, Near CBI ATM",
    "loc": {
      "type": "Point",
      "coordinates": [
        77.185158,
        28.565188
      ]
    },
    "city": "Delhi",
    "mobile": "9953666601"
  },
  {
    "name": "Pawan Electronics And Power So...",
    "phone": "+(91)-9811807255",
    "address": "Begumpur, Delhi - 110017",
    "loc": {
      "type": "Point",
      "coordinates": [
        77.207168,
        28.538537
      ]
    },
    "city": "Delhi",
    "mobile": "9811807255"
  },
  {
    "name": "Gizmos",
    "phone": "+(91)-9910075342",
    "address": "105, Dlf South Square, Sarojini Nagar, Delhi - 110023, Multi Level Car Parking",
    "loc": {
      "type": "Point",
      "coordinates": [
        77.198667,
        28.5755
      ]
    },
    "city": "Delhi",
    "mobile": "9910075342"
  },
  {
    "name": "Seher Cooling",
    "phone": "+(91)-9312235175",
    "address": "Panchsheel Park, Delhi - 110017",
    "loc": {
      "type": "Point",
      "coordinates": [
        77.2131952832,
        28.5395941326
      ]
    },
    "city": "Delhi",
    "mobile": "9312235175"
  },
  null,
  {
    "name": "Varun ENT",
    "phone": "+(91)-9811207778",
    "address": "36,Satya Niketan, Ndse, Delhi - 110049, Nr Venkatesh College,South Delhi",
    "loc": {
      "type": "Point",
      "coordinates": [
        77.218532,
        28.572292
      ]
    },
    "city": "Delhi",
    "mobile": "9811207778"
  },
  null,
  null

,

  null,
  null,
  null,
  null,
  {
    "name": "Allex Electronics Industries",
    "phone": "+(91)-7210795414",
    "address": "C-1, Main Market, Malviya Nagar, Delhi - 110017, Near Dominoz",
    "loc": {
      "type": "Point",
      "coordinates": [
        77.212075,
        28.53693
      ]
    },
    "city": "Delhi",
    "mobile": "7210795414"
  },
  {
    "name": "Chabra Gift Gallery",
    "phone": "+(91)-9654793842",
    "address": "C 4 shop no 2, Main market, Malviya Nagar, Delhi - 110017, Opposite moti sweets",
    "loc": {
      "type": "Point",
      "coordinates": [
        77.211838,
        28.536842
      ]
    },
    "city": "Delhi",
    "mobile": "9654793842"
  },
  {
    "name": "Kuldeep Electricals",
    "phone": "+(91)-9891825196",
    "address": "T-456, Main Rd, Chirag Delhi, Delhi - 110017, Opp Hanuman Mandir",
    "loc": {
      "type": "Point",
      "coordinates": [
        77.212051,
        28.536379
      ]
    },
    "city": "Delhi",
    "mobile": "9891825196"
  },
  null,
  null,
  null

,

  {
    "name": "Krisraj ENT",
    "phone": "+(91)-9311061112",
    "address": "P-218,1st Flr, Main Rd, Sarojini Nagar, Delhi - 110023, Pillanji",
    "loc": {
      "type": "Point",
      "coordinates": [
        77.195603,
        28.578492
      ]
    },
    "city": "Delhi",
    "mobile": "9311061112"
  },
  {
    "name": "Akash Electronics",
    "phone": "+(91)-9212176011",
    "address": "Sarojini Nagar, Delhi - 110023",
    "loc": {
      "type": "Point",
      "coordinates": [
        77.195603,
        28.578492
      ]
    },
    "city": "Delhi",
    "mobile": "9212176011"
  },
  null,
  {
    "name": "Bindra Air Con",
    "phone": "+(91)-9811110484",
    "address": "80/24-B, Malviya Nagar, Delhi - 110017, Nr Guruwara",
    "loc": {
      "type": "Point",
      "coordinates": [
        77.212636,
        28.535747
      ]
    },
    "city": "Delhi",
    "mobile": "9811110484"
  },
  null,
  {
    "name": "Sarfaraaz Electronics",
    "phone": "+(91)-9312554944",
    "address": "T-35a, Malviya Nagar, Delhi - 110017, Khirki Extn",
    "loc": {
      "type": "Point",
      "coordinates": [
        77.212636,
        28.535747
      ]
    },
    "city": "Delhi",
    "mobile": "9312554944"
  },
  {
    "name": "Vision Electronics",
    "phone": "+(91)-9313234194",
    "address": "J-3/31,Shop No 3, Malviya Nagar, Delhi - 110017, Khirki Extn",
    "loc": {
      "type": "Point",
      "coordinates": [
        77.212636,
        28.535747
      ]
    },
    "city": "Delhi",
    "mobile": "9313234194"
  },
  {
    "name": "Snowaves Airconditioning & Ref...",
    "phone": "+(91)-9810461777",
    "address": "L-47a, Malviya Nagar, Delhi - 110017",
    "loc": {
      "type": "Point",
      "coordinates": [
        77.212636,
        28.535747
      ]
    },
    "city": "Delhi",
    "mobile": "9810461777"
  },
  null,
  null

,

  null,
  null,
  null,
  {
    "name": "Quick Cool",
    "phone": "+(91)-9810791336",
    "address": "2028-G, Kotla Mubarakpur, Delhi - 110003, Pilanji",
    "loc": {
      "type": "Point",
      "coordinates": [
        77.222502,
        28.574149
      ]
    },
    "city": "Delhi",
    "mobile": "9810791336"
  },
  {
    "name": "Arize Refrigeration",
    "phone": "+(91)-9871115355",
    "address": "1 India Mall--, Kotla Mubarakpur, Delhi - 110003, Nr Comuniti Center",
    "loc": {
      "type": "Point",
      "coordinates": [
        77.222502,
        28.574149
      ]
    },
    "city": "Delhi",
    "mobile": "9871115355"
  },
  null,
  {
    "name": "COMMUNICATIONS AND GIFT HUB",
    "phone": "+(91)-9654167397",
    "address": "C-4, Guru gobind singh marg, Malviya Nagar, Delhi - 110017, main market",
    "loc": {
      "type": "Point",
      "coordinates": [
        77.212595,
        28.534912
      ]
    },
    "city": "Delhi",
    "mobile": "9654167397"
  },
  {
    "name": "Electronic Shop",
    "phone": "+(91)-9891762224",
    "address": "L-87B, Main Market, Malviya Nagar, Delhi - 110017, Badhi Gol Chakkar",
    "loc": {
      "type": "Point",
      "coordinates": [
        77.207695,
        28.5330638888
      ]
    },
    "city": "Delhi",
    "mobile": "9891762224"
  },
  {
    "name": "Mansi Music Centre",
    "phone": "+(91)-9250700850",
    "address": "Shop No-608, Kotla Mubarakpur, Delhi - 110003, Subhash Mkt",
    "loc": {
      "type": "Point",
      "coordinates": [
        77.224167,
        28.574333
      ]
    },
    "city": "Delhi",
    "mobile": "9250700850"
  },
  {
    "name": "S K Electronics",
    "phone": "+(91)-9810625303",
    "address": "Kailash Colony Market, Delhi, Main Road, Kailash Colony, Delhi - 110048",
    "loc": {
      "type": "Point",
      "coordinates": [
        77.232217,
        28.558805
      ]
    },
    "city": "Delhi",
    "mobile": "9810625303"
  }

,

  {
    "name": "Electronics india",
    "phone": "+(91)-9718052419",
    "address": "T 61, Khirki-Malviya Nagar, Delhi - 110017",
    "loc": {
      "type": "Point",
      "coordinates": [
        77.21328,
        28.533688
      ]
    },
    "city": "Delhi",
    "mobile": "9718052419"
  },
  null,
  {
    "name": "Aliya Air Conditioning",
    "phone": "+(91)-9711301413",
    "address": "E-12/14, 1st Floor, Hauz Rani, Malviya Nagar, Malviya Nagar, Malviya Nagar, Delhi - 110017",
    "loc": {
      "type": "Point",
      "coordinates": [
        77.210963,
        28.53258
      ]
    },
    "city": "Delhi",
    "mobile": "9711301413"
  },
  {
    "name": "Ali electronic",
    "phone": "+(91)-9717410855",
    "address": "E-165, Main mkt, Malviya Nagar, Delhi - 110017, Khirki extn",
    "loc": {
      "type": "Point",
      "coordinates": [
        77.21025,
        28.53232
      ]
    },
    "city": "Delhi",
    "mobile": "9717410855"
  },
  null,
  {
    "name": "Jagdamba Trading Co",
    "phone": "+(91)-9899730457",
    "address": "Chirag Delhi, Delhi - 110017",
    "loc": {
      "type": "Point",
      "coordinates": [
        77.207451,
        28.531799
      ]
    },
    "city": "Delhi",
    "mobile": "9899730457"
  },
  {
    "name": "Electronics india",
    "phone": "+(91)-9871256397",
    "address": "12, Near khirki, Malviya Nagar, Delhi - 110017",
    "loc": {
      "type": "Point",
      "coordinates": [
        77.21083,
        28.5323
      ]
    },
    "city": "Delhi",
    "mobile": "9871256397"
  },
  null,
  {
    "name": "Avatar Electronics",
    "phone": "+(91)-9871035344",
    "address": "D-6, Mohan Singh Market, RK Puram Sector 6, Delhi - 110022, Near tamil sangam",
    "loc": {
      "type": "Point",
      "coordinates": [
        77.176667,
        28.566312
      ]
    },
    "city": "Delhi",
    "mobile": "9871035344"
  },
  null

,

  {
    "name": "Yash electronics",
    "phone": "+(91)-9971843752",
    "address": "D 11 Mohan Singh market, RK Puram Sector 6, Delhi - 110022",
    "loc": {
      "type": "Point",
      "coordinates": [
        77.176383,
        28.566295
      ]
    },
    "city": "Delhi",
    "mobile": "9971843752"
  },
  {
    "name": "Shimran Electronics",
    "phone": "+(91)-9971270625",
    "address": "D-34, Mohan Singh Market, RK Puram Sector 6, Delhi - 110022, Opposite - sangam Cinema",
    "loc": {
      "type": "Point",
      "coordinates": [
        77.176133,
        28.566228
      ]
    },
    "city": "Delhi",
    "mobile": "9971270625"
  },
  null,
  {
    "name": "S k  Electronics",
    "phone": "+(91)-9313509247",
    "address": "RK Puram Sector 6, Delhi - 110022, Sec 6,Mohan Singh Mkt, Nr Bus Stand",
    "loc": {
      "type": "Point",
      "coordinates": [
        77.176064,
        28.56657
      ]
    },
    "city": "Delhi",
    "mobile": "9313509247"
  },
  {
    "name": "New Rama TV shoope",
    "phone": "+(91)-9810637033",
    "address": "Shop no-A 32, Sukhdev Nagar, Kotla Mubarakpur, Delhi - 110003",
    "loc": {
      "type": "Point",
      "coordinates": [
        77.226738,
        28.574847
      ]
    },
    "city": "Delhi",
    "mobile": "9810637033"
  },
  {
    "name": "New rama tv shoppee",
    "phone": "+(91)-8860213770",
    "address": "a-32, gurdwara road, Kotla Mubarakpur, Delhi - 110003, gurdwara",
    "loc": {
      "type": "Point",
      "coordinates": [
        77.226762,
        28.57487
      ]
    },
    "city": "Delhi",
    "mobile": "8860213770"
  },
  null,
  {
    "name": "Croma",
    "phone": "+(91)-7207666000",
    "address": "E-150, Saket, Delhi - 110017, Near Pvr Complex",
    "loc": {
      "type": "Point",
      "coordinates": [
        77.2068306719,
        28.5227605074
      ]
    },
    "city": "Delhi",
    "mobile": "7207666000"
  },
  null,
  null

,

  null,
  null,
  null,
  null,
  null,
  null,
  null,
  null,
  null,
  null

,

  null,
  null,
  null,
  {
    "name": "R K Vision",
    "phone": "+(91)-8375892214",
    "address": "Shop no-89, Khanna market,lodhi colony, Khanna Mkt, Delhi - 110003, Khanna mkt",
    "loc": {
      "type": "Point",
      "coordinates": [
        77.22048,
        28.584212
      ]
    },
    "city": "Delhi",
    "mobile": "8375892214"
  },
  null,
  null,
  null,
  null,
  null,
  {
    "name": "Reliance digital xpress mini",
    "phone": "+(91)-9654782553",
    "address": "Lodhi Road, Delhi - 110003",
    "loc": {
      "type": "Point",
      "coordinates": [
        77.22045,
        28.584683
      ]
    },
    "city": "Delhi",
    "mobile": "9654782553"
  }

,

  {
    "name": "Rk electronics",
    "phone": "+(91)-9654973112",
    "address": "A-37 panchsheel vihar, Malviya Nagar, Delhi - 110017",
    "loc": {
      "type": "Point",
      "coordinates": [
        77.22187,
        28.534312
      ]
    },
    "city": "Delhi",
    "mobile": "9654973112"
  },
  null,
  null,
  null,
  null,
  null,
  null,
  null,
  null,
  null

,

  null,
  null,
  null,
  null,
  null,
  {
    "name": "Khanna Electronics",
    "phone": "+(91)-9650154385",
    "address": "M-1, Prem Singh Wali Gali, Lado Sarai-Mehrauli, Delhi - 110030, Near Hanuman Mandir",
    "loc": {
      "type": "Point",
      "coordinates": [
        77.195678,
        28.525692
      ]
    },
    "city": "Delhi",
    "mobile": "9650154385"
  },
  {
    "name": "Sharma Electronics & Electric ...",
    "phone": "+(91)-9818538841",
    "address": "Shop No-23, Shopping Centre, Jawaharlal Nehru University, Delhi - 110067, Nr Jnu",
    "loc": {
      "type": "Point",
      "coordinates": [
        77.172591,
        28.550102
      ]
    },
    "city": "Delhi",
    "mobile": "9818538841"
  },
  {
    "name": "Radio City ENT",
    "phone": "+(91)-9899850791",
    "address": "Greater Kailash, Delhi - 110048, M Blk Mkt,Greater Kailash-II",
    "loc": {
      "type": "Point",
      "coordinates": [
        77.237363,
        28.55011
      ]
    },
    "city": "Delhi",
    "mobile": "9899850791"
  },
  null,
  null

,

  null,
  {
    "name": "Music communication",
    "phone": "+(91)-9818308477",
    "address": "f-57, gurdwara road, Kotla Mubarakpur, Delhi - 110003",
    "loc": {
      "type": "Point",
      "coordinates": [
        77.227303,
        28.575237
      ]
    },
    "city": "Delhi",
    "mobile": "9818308477"
  },
  null,
  null,
  {
    "name": "Krishna Electronic",
    "phone": "+(91)-9560520116",
    "address": "Shop no. T - 456/ M3, Main market, Chirag Delhi, Delhi - 110017, Hanuman mandir road",
    "loc": {
      "type": "Point",
      "coordinates": [
        77.23047,
        28.53638
      ]
    },
    "city": "Delhi",
    "mobile": "9560520116"
  },
  null,
  {
    "name": "Global Electricals",
    "phone": "+(91)-9810771118",
    "address": "Jor Bagh, Delhi - 110003",
    "loc": {
      "type": "Point",
      "coordinates": [
        77.215855,
        28.587649
      ]
    },
    "city": "Delhi",
    "mobile": "9810771118"
  },
  null,
  null,
  null

,

  null,
  {
    "name": "True Link ENT",
    "phone": "+(91)-9868388146",
    "address": "Shop No-4, R K Puram, Delhi - 110022, Kashmiri Mkt,Nr Hyatt Regency Hotel",
    "loc": {
      "type": "Point",
      "coordinates": [
        77.175164,
        28.566884
      ]
    },
    "city": "Delhi",
    "mobile": "9868388146"
  },
  null,
  null,
  {
    "name": "Gautam Enterprises",
    "phone": "+(91)-9999763177",
    "address": "F-291, Hanuman Mandir Wali Gali, Lado Sarai-Mehrauli, Delhi - 110030, Near Hanuman Mandir",
    "loc": {
      "type": "Point",
      "coordinates": [
        77.195962,
        28.525595
      ]
    },
    "city": "Delhi",
    "mobile": "9999763177"
  },
  null,
  null,
  null,
  null,
  null

,

  null,
  null,
  null,
  null,
  null,
  null,
  null,
  {
    "name": "Arise Lifestyle",
    "phone": "+(91)-8800690112",
    "address": "Shop No-15, Local Shopping Centre, Panchsheel Park, Delhi - 110017, Opposite Oriental Bank of Commerce",
    "loc": {
      "type": "Point",
      "coordinates": [
        77.214741,
        28.530092
      ]
    },
    "city": "Delhi",
    "mobile": "8800690112"
  },
  null,
  {
    "name": "Air Conditioners I",
    "phone": "+(91)-9810154982",
    "address": "J-36/B, Lajpat Nagar, Delhi - 110024, Part-2",
    "loc": {
      "type": "Point",
      "coordinates": [
        77.241809,
        28.568997
      ]
    },
    "city": "Delhi",
    "mobile": "9810154982"
  }

,

  {
    "name": "ROOHI ENTERPRISES",
    "phone": "+(91)-9811650612",
    "address": "Shop no-384, Chirag Delhi Road, Chirag Delhi, Delhi - 110017, Beside PNB ATM",
    "loc": {
      "type": "Point",
      "coordinates": [
        77.229713,
        28.53617
      ]
    },
    "city": "Delhi",
    "mobile": "9811650612"
  },
  {
    "name": "Priyanka Electricals",
    "phone": "+(91)-9810192210",
    "address": "Shop No-76, Main Market, R K Puram, Delhi - 110022, Behind Sangam Cinema",
    "loc": {
      "type": "Point",
      "coordinates": [
        77.17347,
        28.57261
      ]
    },
    "city": "Delhi",
    "mobile": "9810192210"
  },
  {
    "name": "Cool Freeze AC Co",
    "phone": "+(91)-9868342910",
    "address": "Shop No-11,Dda Cplx, Munirka, Delhi - 110067, Dda Mkt,Munrika Vihar",
    "loc": {
      "type": "Point",
      "coordinates": [
        77.173601,
        28.551898
      ]
    },
    "city": "Delhi",
    "mobile": "9868342910"
  },
  null,
  null,
  {
    "name": "A V Refrigerator",
    "phone": "+(91)-8447657939",
    "address": "T 456, Basement, Chirag Delhi, Delhi - 110017",
    "loc": {
      "type": "Point",
      "coordinates": [
        77.227725,
        28.538178
      ]
    },
    "city": "Delhi",
    "mobile": "8447657939"
  },
  null,
  null,
  null,
  null

,

  null,
  {
    "name": "Airmaster rectifiers pvt ltd",
    "phone": "+(91)-9313914174",
    "address": "G-78, Triveni complex, Sheikh Sarai 1, Delhi - 110017, Near punjab national bank",
    "loc": {
      "type": "Point",
      "coordinates": [
        77.223717,
        28.536397
      ]
    },
    "city": "Delhi",
    "mobile": "9313914174"
  },
  {
    "name": "A K Electronics",
    "phone": "+(91)-9899010473",
    "address": "Shop no - 5, Baba gang nath mrkt, Munirka, Delhi - 110067, Opposite Barat Ghar",
    "loc": {
      "type": "Point",
      "coordinates": [
        77.173333,
        28.556333
      ]
    },
    "city": "Delhi",
    "mobile": "9899010473"
  },
  {
    "name": "Through Link ENT",
    "phone": "+(91)-9871577656",
    "address": "R K Puram, Delhi - 110022, Sec-6,Mohan Singh Mkt",
    "loc": {
      "type": "Point",
      "coordinates": [
        77.175164,
        28.566884
      ]
    },
    "city": "Delhi",
    "mobile": "9871577656"
  },
  {
    "name": "7- Utsav",
    "phone": "+(91)-9958726458",
    "address": "D-96, Subhram Complex, Munirka, Delhi - 110067, Opposite Barat Ghar",
    "loc": {
      "type": "Point",
      "coordinates": [
        77.172833,
        28.5565
      ]
    },
    "city": "Delhi",
    "mobile": "9958726458"
  },
  {
    "name": "R K ELECTRONICS",
    "phone": "+(91)-9990258533",
    "address": "Shop no. C-24, pancheel vihar, Malviya Nagar, Delhi - 110017, Near triveni complex",
    "loc": {
      "type": "Point",
      "coordinates": [
        77.222167,
        28.53445
      ]
    },
    "city": "Delhi",
    "mobile": "9990258533"
  },
  null,
  null,
  {
    "name": "Mahtab Khan",
    "phone": "+(91)-9990169116",
    "address": "Chirag Delhi, Delhi - 110017",
    "loc": {
      "type": "Point",
      "coordinates": [
        77.227725,
        28.538178
      ]
    },
    "city": "Delhi",
    "mobile": "9990169116"
  },
  {
    "name": "Jagannath Electronics & Electr...",
    "phone": "+(91)-9968424505",
    "address": "464-A, Chirag Delhi, Delhi - 110017",
    "loc": {
      "type": "Point",
      "coordinates": [
        77.227725,
        28.538178
      ]
    },
    "city": "Delhi",
    "mobile": "9968424505"
  }

,

  null,
  {
    "name": "Sarfraz Electronics",
    "phone": "+(91)-9711939322",
    "address": "E-11/72, New Colony, Malviya Nagar, Delhi - 110017, Hair Rani",
    "loc": {
      "type": "Point",
      "coordinates": [
        77.214333,
        28.5305
      ]
    },
    "city": "Delhi",
    "mobile": "9711939322"
  },
  {
    "name": "Emmanuvel Electronics",
    "phone": "+(91)-9718219447",
    "address": "P No-211-C, Munirka, Delhi - 110067, Opposite Barat Ghar,Baba Gangnath Market",
    "loc": {
      "type": "Point",
      "coordinates": [
        77.172167,
        28.555048
      ]
    },
    "city": "Delhi",
    "mobile": "9718219447"
  },
  {
    "name": "Bhutani Electronics",
    "phone": "+(91)-8802001081",
    "address": "20-21' khanna mkt, Lodhi Colony, Delhi - 110003, Near shiv mandir",
    "loc": {
      "type": "Point",
      "coordinates": [
        77.221,
        28.581333
      ]
    },
    "city": "Delhi",
    "mobile": "8802001081"
  },
  {
    "name": "Chaya Refrigrations",
    "phone": "+(91)-9953121222",
    "address": "61 Vasant Palace Mkt, Nr Malai Mandhir ,South Indian Temple, R K Puram, Delhi - 110022, Sec 6",
    "loc": {
      "type": "Point",
      "coordinates": [
        77.17189287,
        28.55877062
      ]
    },
    "city": "Delhi",
    "mobile": "9953121222"
  },
  {
    "name": "Fareed electronic",
    "phone": "+(91)-9811886909",
    "address": "J4/64, Khirki Extention, Malviya Nagar, Delhi - 110017, Near Select City Mall",
    "loc": {
      "type": "Point",
      "coordinates": [
        77.216833,
        28.531
      ]
    },
    "city": "Delhi",
    "mobile": "9811886909"
  },
  {
    "name": "Light electrical",
    "phone": "+(91)-7042854271",
    "address": "Munirka, Delhi - 110067, 210a bindal house",
    "loc": {
      "type": "Point",
      "coordinates": [
        77.171738,
        28.556817
      ]
    },
    "city": "Delhi",
    "mobile": "7042854271"
  },
  null,
  null,
  null

,

  {
    "name": "Gunjan electronic",
    "phone": "+(91)-8527564712",
    "address": "Sultanpur colony, Malviya Nagar, Delhi - 110017, Near gurudwara",
    "loc": {
      "type": "Point",
      "coordinates": [
        77.214741,
        28.530092
      ]
    },
    "city": "Delhi",
    "mobile": "8527564712"
  },
  {
    "name": "Shahin Electronics & Electricals",
    "phone": "+(91)-9910086420",
    "address": "Shop Number-A/249, Rama market, Munirka, Delhi - 110067, Near Vasant Vihar Depot,Aggarwal Sweets,Rama Market",
    "loc": {
      "type": "Point",
      "coordinates": [
        77.171478,
        28.558063
      ]
    },
    "city": "Delhi",
    "mobile": "9910086420"
  },
  {
    "name": "Sahul electronic",
    "phone": "+(91)-9911529677",
    "address": "117a, Zamrudpur-Greater Kailash I, Delhi - 110048",
    "loc": {
      "type": "Point",
      "coordinates": [
        77.237167,
        28.5575
      ]
    },
    "city": "Delhi",
    "mobile": "9911529677"
  },
  null,
  null,
  null,
  {
    "name": "Imtiyaz Watch & Electronics",
    "phone": "+(91)-9953456846",
    "address": "Shop No-54, Zamrudpur-Greater Kailash I, Delhi - 110048",
    "loc": {
      "type": "Point",
      "coordinates": [
        77.237957,
        28.557423
      ]
    },
    "city": "Delhi",
    "mobile": "9953456846"
  },
  {
    "name": "Hi Fex Electronics & Watch",
    "phone": "+(91)-9213541172",
    "address": "Shop No- A -110, Zamrudpur-Greater Kailash I, Delhi - 110048, Gk-1",
    "loc": {
      "type": "Point",
      "coordinates": [
        77.23796,
        28.557216
      ]
    },
    "city": "Delhi",
    "mobile": "9213541172"
  },
  {
    "name": "Sonu Electronics",
    "phone": "+(91)-9873551416",
    "address": "shop no.A-56, main market, Zamrudpur-Greater Kailash I, Delhi - 110048, near Ladies Sri Ram College",
    "loc": {
      "type": "Point",
      "coordinates": [
        77.238,
        28.557167
      ]
    },
    "city": "Delhi",
    "mobile": "9873551416"
  },
  {
    "name": "Soni electronic",
    "phone": "+(91)-9650948072",
    "address": "54 zamrudpur, Main market, Greater Kailash I, Delhi - 110048, Near chetna telecom",
    "loc": {
      "type": "Point",
      "coordinates": [
        77.238083,
        28.558142
      ]
    },
    "city": "Delhi",
    "mobile": "9650948072"
  }

,

  {
    "name": "Sadveer Retail",
    "phone": "+(91)-9873299937",
    "address": "E-588, Greater Kailash, Delhi - 110048, Part-II",
    "loc": {
      "type": "Point",
      "coordinates": [
        77.237363,
        28.55011
      ]
    },
    "city": "Delhi",
    "mobile": "9873299937"
  },
  null,
  {
    "name": "VP Electricals",
    "phone": "+(91)-9582389998",
    "address": "Shop no-63 A/1, Arjun Nagar-Safdarjung Enclave, Delhi - 110029, Near Chota Gurudwara",
    "loc": {
      "type": "Point",
      "coordinates": [
        77.203327,
        28.587837
      ]
    },
    "city": "Delhi",
    "mobile": "9582389998"
  },
  {
    "name": "Sanjeev Electronics",
    "phone": "+(91)-9871283009",
    "address": "S-217, Bank Street, Munirka, Delhi - 110067, Munirka",
    "loc": {
      "type": "Point",
      "coordinates": [
        77.19293,
        28.52723
      ]
    },
    "city": "Delhi",
    "mobile": "9871283009"
  },
  {
    "name": "Gautam Enterprises",
    "phone": "+(91)-8826172250",
    "address": "F 291, Hanuman mandir gali, Lado Sarai-Mehrauli, Delhi - 110030, Near canara bank ATM",
    "loc": {
      "type": "Point",
      "coordinates": [
        77.195913,
        28.525545
      ]
    },
    "city": "Delhi",
    "mobile": "8826172250"
  },
  null,
  null,
  null,
  null,
  null

,

  {
    "name": "Sabros Enterprises",
    "phone": "+(91)-9312269330",
    "address": "B-77, Basement, Lajpat Nagar 1-Lajpat Nagar, Delhi - 110024, Opposite Defence Colony Petrol Pump, Near Gufa Wala Mandir",
    "loc": {
      "type": "Point",
      "coordinates": [
        77.239508,
        28.575073
      ]
    },
    "city": "Delhi",
    "mobile": "9312269330"
  },
  null,
  null,
  null,
  null,
  null,
  null,
  null,
  null,
  null

,

  null,
  null,
  null,
  null,
  null,
  null,
  null,
  null,
  null,
  null

,

  {
    "name": "M K Electronic",
    "phone": "+(91)-9999838897",
    "address": "Shop No-15, Satya Niketan, Moti Bagh, Delhi - 110021",
    "loc": {
      "type": "Point",
      "coordinates": [
        77.16883,
        28.587313
      ]
    },
    "city": "Delhi",
    "mobile": "9999838897"
  },
  {
    "name": "Bhawani Electronics",
    "phone": "+(91)-9810627404",
    "address": "B-59,Dayanand Colony, Part IV, Lajpat Nagar 4-Lajpat Nagar, Delhi - 110024, Oppsite  Mother Dairy",
    "loc": {
      "type": "Point",
      "coordinates": [
        77.246772,
        28.562875
      ]
    },
    "city": "Delhi",
    "mobile": "9810627404"
  },
  null,
  null,
  null,
  null,
  null,
  null,
  {
    "name": "Kool Mart",
    "phone": "+(91)-9818133764",
    "address": "Shop No-3, East Of Kailash, Delhi - 110065, Sant Nagar",
    "loc": {
      "type": "Point",
      "coordinates": [
        77.246167,
        28.554333
      ]
    },
    "city": "Delhi",
    "mobile": "9818133764"
  },
  null

,

  null,
  null,
  null,
  null,
  null,
  null,
  null,
  {
    "name": "Sharad Air Conditioning",
    "phone": "+(91)-9899400203",
    "address": "J-34-A, Lajpat Nagar 2-Lajpat Nagar, Delhi - 110024, Part-2,Central Mkt",
    "loc": {
      "type": "Point",
      "coordinates": [
        77.242119,
        28.570992
      ]
    },
    "city": "Delhi",
    "mobile": "9899400203"
  },
  null,
  null

,

  {
    "name": "Pragati Electronics",
    "phone": "+(91)-9654670982",
    "address": "70/1, Main Market, East Of Kailash, Delhi - 110065, Amrit Puri, Garhi",
    "loc": {
      "type": "Point",
      "coordinates": [
        77.251403,
        28.559397
      ]
    },
    "city": "Delhi",
    "mobile": "9654670982"
  },
  null,
  {
    "name": "R K Digital World",
    "phone": "+(91)-9013703733",
    "address": "Lodhi Road, Delhi - 110003",
    "loc": {
      "type": "Point",
      "coordinates": [
        77.224433,
        28.590645
      ]
    },
    "city": "Delhi",
    "mobile": "9013703733"
  },
  null,
  null,
  {
    "name": "Dawar Electrical works",
    "phone": "+(91)-9811074420",
    "address": "S No-F-88, Basement, F block, Lajpat Nagar, Delhi - 110024, Part-1",
    "loc": {
      "type": "Point",
      "coordinates": [
        77.243562,
        28.572845
      ]
    },
    "city": "Delhi",
    "mobile": "9811074420"
  },
  {
    "name": "Sachdeva Electricals",
    "phone": "+(91)-9868055939",
    "address": "Shop No 1 & 2, Gali No-19, Madangir, Delhi - 110062, Dda Mkt, PH-2,Nr Madar Dairy, Opp Sec 4, Pusp Vihar, Shiv Mandir",
    "loc": {
      "type": "Point",
      "coordinates": [
        77.231927,
        28.524639
      ]
    },
    "city": "Delhi",
    "mobile": "9868055939"
  },
  {
    "name": "Unique Electronics",
    "phone": "+(91)-9899778717",
    "address": "Shop No-8, Ignou Road, Saiyad Ul Ajaib, Delhi - 110030, Opposite New Green Field School",
    "loc": {
      "type": "Point",
      "coordinates": [
        77.205575,
        28.515892
      ]
    },
    "city": "Delhi",
    "mobile": "9899778717"
  },
  null,
  null

,

  null,
  null,
  {
    "name": "Bela Communication",
    "phone": "+(91)-9718711839",
    "address": "Shop No-1, Kavi Nagar, Delhi - 110048, Nagar Nigam Zonal Office, D-Block Market",
    "loc": {
      "type": "Point",
      "coordinates": [
        77.245761,
        28.548889
      ]
    },
    "city": "Delhi",
    "mobile": "9718711839"
  },
  {
    "name": "Sunil Electronics",
    "phone": "+(91)-9313611603",
    "address": "A-215,Double Story, Kalkaji, Delhi - 110019",
    "loc": {
      "type": "Point",
      "coordinates": [
        77.248495,
        28.542955
      ]
    },
    "city": "Delhi",
    "mobile": "9313611603"
  },
  null,
  null,
  null,
  null,
  null,
  null

,

  null,
  null,
  null,
  {
    "name": "Taneja Electricals & Communica...",
    "phone": "+(91)-9871657859",
    "address": "203, Prakash Mohalla, East Of Kailash, Delhi - 110065, Near Gurudwara",
    "loc": {
      "type": "Point",
      "coordinates": [
        77.249755,
        28.558042
      ]
    },
    "city": "Delhi",
    "mobile": "9871657859"
  },
  null,
  null,
  null,
  null,
  null,
  null

,

  null,
  null,
  null,
  null,
  {
    "name": "Raj electronics",
    "phone": "+(91)-8826733001",
    "address": "F-22, Nehru Place, Delhi - 110019",
    "loc": {
      "type": "Point",
      "coordinates": [
        77.252833,
        28.548167
      ]
    },
    "city": "Delhi",
    "mobile": "8826733001"
  },
  null,
  {
    "name": "Manni Refrigerator & Electricals",
    "phone": "+(91)-9350447081",
    "address": "Shop No-19, Nehru Place, Delhi - 110019, Dda Mkt Nr Paras Cinema",
    "loc": {
      "type": "Point",
      "coordinates": [
        77.253356416,
        28.5499434063
      ]
    },
    "city": "Delhi",
    "mobile": "9350447081"
  },
  {
    "name": "Pipal Mart Discount E Retailer",
    "phone": "+(91)-8826437732",
    "address": "D -144, Lajpat Nagar 1-Lajpat Nagar, Delhi - 110024",
    "loc": {
      "type": "Point",
      "coordinates": [
        77.240918,
        28.576721
      ]
    },
    "city": "Delhi",
    "mobile": "8826437732"
  },
  null,
  null

,

  null,
  null,
  null,
  null,
  {
    "name": "Power solutions pvt ltd",
    "phone": "+(91)-9971781972",
    "address": "L 1st 1093, Sangam vihar, Lajpat Nagar 1-Lajpat Nagar, Delhi - 110024",
    "loc": {
      "type": "Point",
      "coordinates": [
        77.241833,
        28.575167
      ]
    },
    "city": "Delhi",
    "mobile": "9971781972"
  },
  {
    "name": "Uniwork Electronics",
    "phone": "+(91)-9810018385",
    "address": "A-92 Basement Dayanand Colony D-1 ,(Basement) Amar Colony Lajpat Nagar IV, New Delhi, Lajpat Nagar, Delhi - 110024",
    "loc": {
      "type": "Point",
      "coordinates": [
        77.246981,
        28.562374
      ]
    },
    "city": "Delhi",
    "mobile": "9810018385"
  },
  {
    "name": "Cool Star Air Conditioner ENG....",
    "phone": "+(91)-9811134995",
    "address": "Shop No  .-36, Vasant Gao, Vasant Vihar, Delhi - 110057",
    "loc": {
      "type": "Point",
      "coordinates": [
        77.158,
        28.571833
      ]
    },
    "city": "Delhi",
    "mobile": "9811134995"
  },
  null,
  {
    "name": "Laxmi Electronics",
    "phone": "+(91)-9711695171",
    "address": "8/287, Madangir, Delhi - 110062, Dakshinpuri Extn, Nr Virat Cinema",
    "loc": {
      "type": "Point",
      "coordinates": [
        77.236995,
        28.523281
      ]
    },
    "city": "Delhi",
    "mobile": "9711695171"
  },
  {
    "name": "Maharaja Aircool",
    "phone": "+(91)-9810888000",
    "address": "A-73, Ground Floor, Lajpat Nagar 2-Lajpat Nagar, Delhi - 110024, Central Market",
    "loc": {
      "type": "Point",
      "coordinates": [
        77.243744,
        28.568589
      ]
    },
    "city": "Delhi",
    "mobile": "9810888000"
  }

,

  null,
  {
    "name": "Satya Niketan Om Sai",
    "phone": "+(91)-9312936760",
    "address": "Lajpat Nagar, Delhi - 110024",
    "loc": {
      "type": "Point",
      "coordinates": [
        77.241908,
        28.572971
      ]
    },
    "city": "Delhi",
    "mobile": "9312936760"
  },
  null,
  {
    "name": "S K ELECTRONICS & MOBILE SHOP",
    "phone": "+(91)-9971646852",
    "address": "House  No.24, Main gali, Saiyad Ul Ajaib, Delhi - 110030, Near ignou road",
    "loc": {
      "type": "Point",
      "coordinates": [
        77.203317,
        28.518288
      ]
    },
    "city": "Delhi",
    "mobile": "9971646852"
  },
  null,
  null,
  null,
  null,
  null,
  null

,

  {
    "name": "Pradeep Radio",
    "phone": "+(91)-9891349047",
    "address": "D-1, Lajpat Nagar, Delhi - 110024, Masudpur Vasant Kunj, Nr South Delhi Restaurant",
    "loc": {
      "type": "Point",
      "coordinates": [
        77.241908,
        28.572971
      ]
    },
    "city": "Delhi",
    "mobile": "9891349047"
  },
  null,
  null,
  null,
  null,
  {
    "name": "Goldstar Airconditioner",
    "phone": "+(91)-9350285320",
    "address": "B-50, Lajpat Nagar, Delhi - 110024, Part-IV,Dayanand Clny",
    "loc": {
      "type": "Point",
      "coordinates": [
        77.246981,
        28.562374
      ]
    },
    "city": "Delhi",
    "mobile": "9350285320"
  },
  null,
  {
    "name": "Eurka home",
    "phone": "+(91)-9810092264",
    "address": "C-16, 2nd Flr, Vasant Vihar, Delhi - 110057",
    "loc": {
      "type": "Point",
      "coordinates": [
        77.161174,
        28.564321
      ]
    },
    "city": "Delhi",
    "mobile": "9810092264"
  },
  null,
  null

,

  null,
  null,
  null,
  {
    "name": "Parveen ENT",
    "phone": "+(91)-9818734528",
    "address": "A-16, Lajpat Nagar, Delhi - 110024, Nr Jalvihar Rd",
    "loc": {
      "type": "Point",
      "coordinates": [
        77.241908,
        28.572971
      ]
    },
    "city": "Delhi",
    "mobile": "9818734528"
  },
  null,
  null,
  null,
  null,
  {
    "name": "Mohan Watch & Electronic",
    "phone": "+(91)-9871616073",
    "address": "70-E, Amritpuri, Garhi, Garhi-East Of Kailash, Delhi - 110065, Near Iskon Temple",
    "loc": {
      "type": "Point",
      "coordinates": [
        77.2517,
        28.559175
      ]
    },
    "city": "Delhi",
    "mobile": "9871616073"
  },
  null

,

  null,
  null,
  {
    "name": "Eagle Refrigeration Air Condit...",
    "phone": "+(91)-9891988729",
    "address": "Shop No. 34, 3 No. Market, Main Road, C R Park, Delhi - 110019, Near Prince & Princess Saloon",
    "loc": {
      "type": "Point",
      "coordinates": [
        77.243167,
        28.541
      ]
    },
    "city": "Delhi",
    "mobile": "9891988729"
  },
  {
    "name": "Hmc Technologies Ltd",
    "phone": "+(91)-9811143884",
    "address": "Hmc House,14, East Of Kailash, Delhi - 110065, Sant Ngr, Nr Nehru Place",
    "loc": {
      "type": "Point",
      "coordinates": [
        77.248234,
        28.554375
      ]
    },
    "city": "Delhi",
    "mobile": "9811143884"
  },
  null,
  null,
  null,
  null,
  null,
  null

,

  null,
  null,
  null,
  {
    "name": "Khalsa Bartan Store",
    "phone": "+(91)-9350913642",
    "address": "1088-B, Ward No.1, Mehrauli Main Road, Mehrauli, Delhi - 110030, Near Police Station",
    "loc": {
      "type": "Point",
      "coordinates": [
        77.181162,
        28.521978
      ]
    },
    "city": "Delhi",
    "mobile": "9350913642"
  },
  null,
  null,
  null,
  null,
  {
    "name": "Babu plumber",
    "phone": "+(91)-9871416194",
    "address": "Building Number- 95, Vishal Bhawav, Nehru Place, Delhi - 110019, Main Market",
    "loc": {
      "type": "Point",
      "coordinates": [
        77.252333,
        28.5485
      ]
    },
    "city": "Delhi",
    "mobile": "9871416194"
  },
  null

,

  {
    "name": "SAI ENTERPRISES",
    "phone": "+(91)-7838889093",
    "address": "S-4, Masjid Road, Bhogal, Delhi - 110014",
    "loc": {
      "type": "Point",
      "coordinates": [
        77.247167,
        28.5815
      ]
    },
    "city": "Delhi",
    "mobile": "7838889093"
  },
  {
    "name": "Lovely Aircon",
    "phone": "+(91)-9811385885",
    "address": "88, Lodhi Road, Delhi - 110003, Nr.cafe Cofee Day,Meharchand  Mkt",
    "loc": {
      "type": "Point",
      "coordinates": [
        77.226845,
        28.587819
      ]
    },
    "city": "Delhi",
    "mobile": "9811385885"
  },
  null,
  null,
  null,
  null,
  null,
  {
    "name": "Rekha Electronics",
    "phone": "+(91)-9871916658",
    "address": "B-692, Ambedka Park, Lajpat Nagar, Delhi - 110024, Nr Dda Flats",
    "loc": {
      "type": "Point",
      "coordinates": [
        77.241908,
        28.572971
      ]
    },
    "city": "Delhi",
    "mobile": "9871916658"
  },
  {
    "name": "Hum Log Services Pvt Ltd",
    "phone": "+(91)-9136469303",
    "address": "20/567, Dda Flat Madangir, Lajpat Nagar, Delhi - 110024, Nr- Pushp Vihar",
    "loc": {
      "type": "Point",
      "coordinates": [
        77.241908,
        28.572971
      ]
    },
    "city": "Delhi",
    "mobile": "9136469303"
  },
  null

,

  {
    "name": "Aftab Electronics",
    "phone": "+(91)-9697946399",
    "address": "Lajpat Nagar, Delhi - 110024",
    "loc": {
      "type": "Point",
      "coordinates": [
        77.241908,
        28.572971
      ]
    },
    "city": "Delhi",
    "mobile": "9697946399"
  },
  {
    "name": "M L Electronics",
    "phone": "+(91)-9811111981",
    "address": "H 4,, Lajpat Nagar, Delhi - 110024",
    "loc": {
      "type": "Point",
      "coordinates": [
        77.241908,
        28.572971
      ]
    },
    "city": "Delhi",
    "mobile": "9811111981"
  },
  {
    "name": "ICE Age Air Conditioners & Ele...",
    "phone": "+(91)-9810290377",
    "address": "Q-7, Double Storey, Lajpat Nagar, Delhi - 110024, Part-4",
    "loc": {
      "type": "Point",
      "coordinates": [
        77.24556,
        28.564053
      ]
    },
    "city": "Delhi",
    "mobile": "9810290377"
  },
  {
    "name": "New Bharti Electronics",
    "phone": "+(91)-9871216261",
    "address": "Shastri Nagar, Delhi - 110057, New Pushta Lahore",
    "loc": {
      "type": "Point",
      "coordinates": [
        77.162741,
        28.56431
      ]
    },
    "city": "Delhi",
    "mobile": "9871216261"
  },
  null,
  null,
  null,
  null,
  {
    "name": "Ramlal Cycle & Electronics",
    "phone": "+(91)-8459112260",
    "address": "Shop no.1092/1, Main Market, Mehrauli, Delhi - 110030, Near Qutub Minar",
    "loc": {
      "type": "Point",
      "coordinates": [
        77.182062,
        28.522813
      ]
    },
    "city": "Delhi",
    "mobile": "8459112260"
  },
  null

,

  null,
  null,
  {
    "name": "Nimbus Cooling",
    "phone": "+(91)-9818248570",
    "address": "D-17/1, East Of Kailash, Delhi - 110065, Kailash Clny",
    "loc": {
      "type": "Point",
      "coordinates": [
        77.249629,
        28.55927
      ]
    },
    "city": "Delhi",
    "mobile": "9818248570"
  },
  null,
  {
    "name": "Nirmal Air Conditioning",
    "phone": "+(91)-9873386890",
    "address": "70, Main Mkt, East Of Kailash, Delhi - 110065",
    "loc": {
      "type": "Point",
      "coordinates": [
        77.249629,
        28.55927
      ]
    },
    "city": "Delhi",
    "mobile": "9873386890"
  },
  {
    "name": "Krishna Audio Visual",
    "phone": "+(91)-9210402939",
    "address": "B-24, East Of Kailash, Delhi - 110065, Main Mkt",
    "loc": {
      "type": "Point",
      "coordinates": [
        77.249629,
        28.55927
      ]
    },
    "city": "Delhi",
    "mobile": "9210402939"
  },
  {
    "name": "R S Air Condition Works",
    "phone": "+(91)-9891166706",
    "address": "Shop No-1, Ashram, Delhi - 110014, Dda Market,Jangpura Extension,Opposite Railway Crossing",
    "loc": {
      "type": "Point",
      "coordinates": [
        77.241433,
        28.580677
      ]
    },
    "city": "Delhi",
    "mobile": "9891166706"
  },
  {
    "name": "Goldern Air Condition",
    "phone": "+(91)-9810145047",
    "address": "Shop No 11, Jangpura, Delhi - 110014, Near Eros Cinema Market",
    "loc": {
      "type": "Point",
      "coordinates": [
        77.241737,
        28.580328
      ]
    },
    "city": "Delhi",
    "mobile": "9810145047"
  },
  null,
  null

,

  null,
  {
    "name": "Vijay laxmi electronics",
    "phone": "+(91)-9810356997",
    "address": "A-16, Main market, Garhi-East Of Kailash, Delhi - 110065, Near isckon temple",
    "loc": {
      "type": "Point",
      "coordinates": [
        77.250437,
        28.560908
      ]
    },
    "city": "Delhi",
    "mobile": "9810356997"
  },
  null,
  {
    "name": "Onyn Components",
    "phone": "+(91)-9313999579",
    "address": "112 Chiranjiv Tower, Nehru Place, Delhi - 110019, 43 Nehru Place",
    "loc": {
      "type": "Point",
      "coordinates": [
        77.249931,
        28.549719
      ]
    },
    "city": "Delhi",
    "mobile": "9313999579"
  },
  {
    "name": "Jr electronics",
    "phone": "+(91)-9810782221",
    "address": "Shop no.-2 ground floor mini market, MOTI bagh, Nanak Pura-Moti Bagh, Delhi - 110021, Near gurudwara",
    "loc": {
      "type": "Point",
      "coordinates": [
        77.170175,
        28.585378
      ]
    },
    "city": "Delhi",
    "mobile": "9810782221"
  },
  {
    "name": "SINGH TRADERS",
    "phone": "+(91)-9899358863",
    "address": "SHOP NO 13/165, MAIN ROAD, Dakshinpuri, Delhi - 110062, PUSHPA BHAWAN",
    "loc": {
      "type": "Point",
      "coordinates": [
        77.2351,
        28.52642
      ]
    },
    "city": "Delhi",
    "mobile": "9899358863"
  },
  {
    "name": "Singh Traders",
    "phone": "+(91)-9990725586",
    "address": "Block-13/165, Dakshinpuri Extension, Dakshinpuri, Delhi - 110062",
    "loc": {
      "type": "Point",
      "coordinates": [
        77.235205,
        28.526455
      ]
    },
    "city": "Delhi",
    "mobile": "9990725586"
  },
  null,
  {
    "name": "AB ELECTRONICS & Mobile Shop",
    "phone": "+(91)-8010020050",
    "address": "Shop no 9, chandan Singh market, Ignou Road, Saiyad Ul Ajaib, Delhi - 110030, Chandan Singh Market",
    "loc": {
      "type": "Point",
      "coordinates": [
        77.205392,
        28.516072
      ]
    },
    "city": "Delhi",
    "mobile": "8010020050"
  },
  null

,

  {
    "name": "N K Electronics",
    "phone": "+(91)-9716905165",
    "address": "Block 13/305, Dakshinpuri extension, Dakshinpuri, Delhi - 110062, Virat Cinema",
    "loc": {
      "type": "Point",
      "coordinates": [
        77.23558,
        28.526117
      ]
    },
    "city": "Delhi",
    "mobile": "9716905165"
  },
  {
    "name": "DEEP GIFT CORNER",
    "phone": "+(91)-9013608787",
    "address": "SHOPNO 87, raja ram, Madangir, Delhi - 110062, main central market",
    "loc": {
      "type": "Point",
      "coordinates": [
        77.232003,
        28.523133
      ]
    },
    "city": "Delhi",
    "mobile": "9013608787"
  },
  {
    "name": "Kapoor Electronic",
    "phone": "+(91)-9811274466",
    "address": "Shop no. 7/5, DDA market, Dr Ambedkar Nagar-Madangir, Delhi - 110062, Dakshinpuri Extension",
    "loc": {
      "type": "Point",
      "coordinates": [
        77.237258,
        28.526942
      ]
    },
    "city": "Delhi",
    "mobile": "9811274466"
  },
  {
    "name": "Sri Sai Enterprises",
    "phone": "+(91)-9718739996",
    "address": "19/513, Brt Khanpur Road, Madangir, Delhi - 110062, Opposite Crime Branch Office",
    "loc": {
      "type": "Point",
      "coordinates": [
        77.22892,
        28.521028
      ]
    },
    "city": "Delhi",
    "mobile": "9718739996"
  },
  null,
  null,
  null,
  {
    "name": "Laxmi Electrical",
    "phone": "+(91)-9810654240",
    "address": "999/7, Near Kasaiwada, Mehrauli, Delhi - 110030, Ward No-7 Opposite-Kubda Halwai",
    "loc": {
      "type": "Point",
      "coordinates": [
        77.179833,
        28.52035
      ]
    },
    "city": "Delhi",
    "mobile": "9810654240"
  },
  null,
  null

,

  {
    "name": "Ram Electronics",
    "phone": "+(91)-9718831606",
    "address": "B 53, Main Road, Kalkaji, Delhi - 110019, Behind Aggarwal Sweets Basement",
    "loc": {
      "type": "Point",
      "coordinates": [
        77.251167,
        28.544167
      ]
    },
    "city": "Delhi",
    "mobile": "9718831606"
  },
  {
    "name": "Amit electroestate",
    "phone": "+(91)-8802105312",
    "address": "22, Nehru Place, Delhi - 110019, 96",
    "loc": {
      "type": "Point",
      "coordinates": [
        77.252333,
        28.547667
      ]
    },
    "city": "Delhi",
    "mobile": "8802105312"
  },
  null,
  {
    "name": "Thukral Time Center",
    "phone": "+(91)-9958071175",
    "address": "B-39a, Main road, Kalkaji, Delhi - 110019, HDFC Bank",
    "loc": {
      "type": "Point",
      "coordinates": [
        77.252158,
        28.54297
      ]
    },
    "city": "Delhi",
    "mobile": "9958071175"
  },
  {
    "name": "Sheetal Refrigeration",
    "phone": "+(91)-9868111899",
    "address": "B-1, Dr Ambedkar Nagar-madangir, Delhi - 110062, Near Virat Cinema",
    "loc": {
      "type": "Point",
      "coordinates": [
        77.236995,
        28.523281
      ]
    },
    "city": "Delhi",
    "mobile": "9868111899"
  },
  {
    "name": "Sangam Enterprises",
    "phone": "+(91)-9971820031",
    "address": "3/58, Dakshinpuri, Near Virat Cinema, New Delhi, Dakshinpuri, Delhi - 110062, Near Virat Cinma",
    "loc": {
      "type": "Point",
      "coordinates": [
        77.236995,
        28.523281
      ]
    },
    "city": "Delhi",
    "mobile": "9971820031"
  },
  {
    "name": "Sonu Electronics",
    "phone": "+(91)-9958135132",
    "address": "Shop No   .-6, Mahatma Gandhi Mkt, Dakshinpuri, Delhi - 110062, Nr Virat Cinema",
    "loc": {
      "type": "Point",
      "coordinates": [
        77.237013,
        28.523095
      ]
    },
    "city": "Delhi",
    "mobile": "9958135132"
  },
  null,
  {
    "name": "BK Engineers india",
    "phone": "+(91)-8585995238",
    "address": "256-A/3,3rd Floor,Govindpuri, Kalkaji, Delhi - 110019",
    "loc": {
      "type": "Point",
      "coordinates": [
        77.254833,
        28.551667
      ]
    },
    "city": "Delhi",
    "mobile": "8585995238"
  },
  null

,

  null,
  {
    "name": "Dass Electronics",
    "phone": "+(91)-9560686090",
    "address": "H-11, Main Road, Kalkaji, Delhi - 110019, Near Mcdonalds",
    "loc": {
      "type": "Point",
      "coordinates": [
        77.25753,
        28.540363
      ]
    },
    "city": "Delhi",
    "mobile": "9560686090"
  },
  null,
  null,
  null,
  null,
  {
    "name": "Big Bazar",
    "phone": "+(91)-8527349158",
    "address": "F-110, School Road, Khanpur, Delhi - 110062, M C D School",
    "loc": {
      "type": "Point",
      "coordinates": [
        77.2295,
        28.513667
      ]
    },
    "city": "Delhi",
    "mobile": "8527349158"
  },
  null,
  null,
  null

,

  null,
  null,
  null,
  null,
  null,
  null,
  null,
  null,
  {
    "name": "Bansal Electricals",
    "phone": "+(91)-9268360137",
    "address": "B-2-128, Madangir, Dakshinpuri Road, Madangir, Delhi - 110062",
    "loc": {
      "type": "Point",
      "coordinates": [
        77.234117,
        28.515455
      ]
    },
    "city": "Delhi",
    "mobile": "9268360137"
  },
  {
    "name": "Stj Electronics Pvt Ltd",
    "phone": "+(91)-9371157139",
    "address": "Okhla, Delhi - 110020",
    "loc": {
      "type": "Point",
      "coordinates": [
        77.26531,
        28.557395
      ]
    },
    "city": "Delhi",
    "mobile": "9371157139"
  }

,

  null,
  null,
  null,
  null,
  null,
  null,
  null,
  {
    "name": "Big Chef Appliances Pvt Ltd",
    "phone": "+(91)-9810441688",
    "address": "F-90/21, Okhla, Delhi - 110020, PH-1",
    "loc": {
      "type": "Point",
      "coordinates": [
        77.26531,
        28.557395
      ]
    },
    "city": "Delhi",
    "mobile": "9810441688"
  },
  null,
  null

,

  null,
  null,
  {
    "name": "Mk Electronics",
    "phone": "+(91)-9971868152",
    "address": "C 15, Vasant Kunj, Delhi - 110070, Nr Vasant Vihar Mall",
    "loc": {
      "type": "Point",
      "coordinates": [
        77.15503,
        28.5419
      ]
    },
    "city": "Delhi",
    "mobile": "9971868152"
  },
  {
    "name": "Delhi Electricals",
    "phone": "+(91)-9810127191",
    "address": "F-9/12, Malviya Nagar, Delhi - 110017",
    "loc": {
      "type": "Point",
      "coordinates": [
        77.231261,
        28.514406
      ]
    },
    "city": "Delhi",
    "mobile": "9810127191"
  },
  null,
  {
    "name": "Rupali Traders",
    "phone": "+(91)-9555501675",
    "address": "Csd Canteen Cplx, Madangir, Delhi - 110062, Vauvsanabad",
    "loc": {
      "type": "Point",
      "coordinates": [
        77.240052,
        28.514428
      ]
    },
    "city": "Delhi",
    "mobile": "9555501675"
  },
  {
    "name": "Khatter Electronics",
    "phone": "+(91)-9811830303",
    "address": "890/8, Mehrauli (Sarai), Main Market Road Mehrauli, Mehrauli, Delhi - 110030, Near Jahaj Mahal",
    "loc": {
      "type": "Point",
      "coordinates": [
        77.178667,
        28.514833
      ]
    },
    "city": "Delhi",
    "mobile": "9811830303"
  },
  {
    "name": "BALAJI HOME APPLIANCES",
    "phone": "+(91)-9810668396",
    "address": "j157, main road, Dakshinpuri, Delhi - 110062, NEAR BARAT GHAR",
    "loc": {
      "type": "Point",
      "coordinates": [
        77.23893,
        28.518283
      ]
    },
    "city": "Delhi",
    "mobile": "9810668396"
  },
  null,
  {
    "name": "Cooltech Refrigeration",
    "phone": "+(91)-9210925111",
    "address": "C-1/916, Madangir, Delhi - 110062",
    "loc": {
      "type": "Point",
      "coordinates": [
        77.23116,
        28.517846
      ]
    },
    "city": "Delhi",
    "mobile": "9210925111"
  }
]
