[

  null,
  {
    "name": "Chawla Chemist",
    "phone": "+(91)-9953923342",
    "address": "72/2, Main Market, Yusuf Sarai-Green Park, Delhi - 110016, Near Aiims Hospital",
    "loc": {
      "type": "Point",
      "coordinates": [
        77.207975,
        28.558431
      ]
    },
    "city": "Delhi",
    "mobile": "9953923342"
  },
  null,
  null,
  {
    "name": "All India Medicos",
    "phone": "+(91)-9810802605",
    "address": "Main Road, NDMC Market, Yusuf Sarai-green Park, Delhi - 110016, Near Aiims",
    "loc": {
      "type": "Point",
      "coordinates": [
        77.2075,
        28.562
      ]
    },
    "city": "Delhi",
    "mobile": "9810802605"
  },
  null,
  null,
  null,
  null,
  null

,

  null,
  null,
  {
    "name": "Jagdamba chemist",
    "phone": "+(91)-9211072406",
    "address": "17/7, Yusuf Sarai-Green Park, Delhi - 110016",
    "loc": {
      "type": "Point",
      "coordinates": [
        77.202667,
        28.5575
      ]
    },
    "city": "Delhi",
    "mobile": "9211072406"
  },
  {
    "name": "98.4",
    "phone": "+(91)-8588900321",
    "address": "G-42, Main market, Green Park, Delhi - 110016",
    "loc": {
      "type": "Point",
      "coordinates": [
        77.202575,
        28.557608
      ]
    },
    "city": "Delhi",
    "mobile": "8588900321"
  },
  null,
  null,
  {
    "name": "GUARDIAN PHARMACY",
    "phone": "+(91)-9891328997",
    "address": "G56, green park. Market, Green Park Market, Delhi - 110016, Opp. Evergreen sweet house",
    "loc": {
      "type": "Point",
      "coordinates": [
        77.202263,
        28.556408
      ]
    },
    "city": "Delhi",
    "mobile": "9891328997"
  },
  null,
  null,
  null

,

  {
    "name": "Krishan kumar &sons",
    "phone": "+(91)-9910843397",
    "address": "s-39, green park, Green Park Market, Delhi - 110016",
    "loc": {
      "type": "Point",
      "coordinates": [
        77.202012,
        28.555508
      ]
    },
    "city": "Delhi",
    "mobile": "9910843397"
  },
  {
    "name": "Shri Ram Medicos",
    "phone": "+(91)-9312513809",
    "address": "Shop No.C-1/G, Green Park Extension, Delhi - 110016, Opp.Indian Oil Building",
    "loc": {
      "type": "Point",
      "coordinates": [
        77.20652,
        28.558833
      ]
    },
    "city": "Delhi",
    "mobile": "9312513809"
  },
  null,
  {
    "name": "Krishna KUMAR & sons",
    "phone": "+(91)-9953275910",
    "address": "shop no. S 39, Green Park, Delhi - 110016",
    "loc": {
      "type": "Point",
      "coordinates": [
        77.20185,
        28.555467
      ]
    },
    "city": "Delhi",
    "mobile": "9953275910"
  },
  null,
  null,
  null,
  null,
  null,
  null

,

  null,
  null,
  null,
  null,
  null,
  null,
  {
    "name": "Kalra medical store",
    "phone": "+(91)-9717725958",
    "address": "22/12, yusuf sarai, Yusuf Sarai-Green Park, Delhi - 110016, green park metro station",
    "loc": {
      "type": "Point",
      "coordinates": [
        77.206772,
        28.560092
      ]
    },
    "city": "Delhi",
    "mobile": "9717725958"
  },
  {
    "name": "Royal associate chemist",
    "phone": "+(91)-9911501167",
    "address": "Shop no-22/5, gf, Green Park, Delhi - 110016, Near metro station",
    "loc": {
      "type": "Point",
      "coordinates": [
        77.207183,
        28.559847
      ]
    },
    "city": "Delhi",
    "mobile": "9911501167"
  },
  {
    "name": "GARG MEDICOS",
    "phone": "+(91)-9999624562",
    "address": "Shop. No. 17/22., mandir wali gali ., Yusuf Sarai-Green Park, Delhi - 110016, Near Metro Station Gate No 4.",
    "loc": {
      "type": "Point",
      "coordinates": [
        77.206658,
        28.560622
      ]
    },
    "city": "Delhi",
    "mobile": "9999624562"
  },
  null

,

  null,
  null,
  null,
  {
    "name": "GARG MEDICOS",
    "phone": "+(91)-9871786184",
    "address": "17/22, mandir wali gali, Yusuf Sarai-Green Park, Delhi - 110016, near. Green park metro station",
    "loc": {
      "type": "Point",
      "coordinates": [
        77.206597,
        28.560622
      ]
    },
    "city": "Delhi",
    "mobile": "9871786184"
  },
  null,
  null,
  {
    "name": "Garg Chemist",
    "phone": "+(91)-7505183979",
    "address": "17/22,Mandir Wali Gali, Yusuf Sarai-Green Park, Delhi - 110016",
    "loc": {
      "type": "Point",
      "coordinates": [
        77.206572,
        28.560883
      ]
    },
    "city": "Delhi",
    "mobile": "7505183979"
  },
  {
    "name": "Jagdamba Chemist",
    "phone": "+(91)-9990039755",
    "address": "17/7, yusuf sarai market, Aurobindo marg, Yusuf Sarai-Green Park, Delhi - 110016, Near Main Market",
    "loc": {
      "type": "Point",
      "coordinates": [
        77.207162,
        28.560562
      ]
    },
    "city": "Delhi",
    "mobile": "9990039755"
  },
  null,
  null

,

  null,
  {
    "name": "B.L.CHEMISTS",
    "phone": "+(91)-9971624869",
    "address": "50/1 & 2, green park, Yusuf Sarai-Green Park, Delhi - 110016, near metro station",
    "loc": {
      "type": "Point",
      "coordinates": [
        77.207153,
        28.560605
      ]
    },
    "city": "Delhi",
    "mobile": "9971624869"
  },
  {
    "name": "Rajdhani Medicos",
    "phone": "+(91)-9873760664",
    "address": "52/1-2 Lower Ground Floor, yusuf sarai, Churi Wali Gali Gautam Nagar Road, Yusuf Sarai-Green Park, Delhi - 110016, Gautam Nagar",
    "loc": {
      "type": "Point",
      "coordinates": [
        77.207625,
        28.560263
      ]
    },
    "city": "Delhi",
    "mobile": "9873760664"
  },
  null,
  null,
  {
    "name": "Chawla Chemist",
    "phone": "+(91)-9910810266",
    "address": "72/1, Ground Floor  Main Market, Main Road, Yusuf Sarai-Green Park, Delhi - 110016",
    "loc": {
      "type": "Point",
      "coordinates": [
        77.207313,
        28.5608
      ]
    },
    "city": "Delhi",
    "mobile": "9910810266"
  },
  null,
  {
    "name": "Life Care Medicos",
    "phone": "+(91)-9718669494",
    "address": "72/1, Main Market, Yusuf Sarai-Green Park, Delhi - 110016, Near green park gate no. 1",
    "loc": {
      "type": "Point",
      "coordinates": [
        77.207358,
        28.560805
      ]
    },
    "city": "Delhi",
    "mobile": "9718669494"
  },
  {
    "name": "Help Line Medical Store",
    "phone": "+(91)-7838105518",
    "address": "74/1, Main Market, Yusuf Sarai-Green Park, Delhi - 110016, Near metro",
    "loc": {
      "type": "Point",
      "coordinates": [
        77.207008,
        28.561097
      ]
    },
    "city": "Delhi",
    "mobile": "7838105518"
  },
  null

,

  null,
  {
    "name": "CHARITABLE PHARMACY",
    "phone": "+(91)-9310572127",
    "address": "74/5, Main Market, Yusuf Sarai-Green Park, Delhi - 110016, Near Red Light",
    "loc": {
      "type": "Point",
      "coordinates": [
        77.207358,
        28.561187
      ]
    },
    "city": "Delhi",
    "mobile": "9310572127"
  },
  {
    "name": "Alok Medicos",
    "phone": "+(91)-9811352277",
    "address": "S No-7/6, Mandir Wali Gali, Yusuf Sarai-Green Park, Delhi - 110016, Nr. Aiims",
    "loc": {
      "type": "Point",
      "coordinates": [
        77.206833,
        28.5615
      ]
    },
    "city": "Delhi",
    "mobile": "9811352277"
  },
  null,
  null,
  {
    "name": "The Medicine House",
    "phone": "+(91)-9818139474",
    "address": "11/2,1st Floor, Main Market, Yusuf Sarai-Green Park, Delhi - 110016, Near Mandir Wali Gali",
    "loc": {
      "type": "Point",
      "coordinates": [
        77.2075,
        28.561167
      ]
    },
    "city": "Delhi",
    "mobile": "9818139474"
  },
  null,
  {
    "name": "CHARITABLE PHARMACY",
    "phone": "+(91)-9899949306",
    "address": "74/5,, Main road, Yusuf Sarai-Green Park, Delhi - 110016, Near red light",
    "loc": {
      "type": "Point",
      "coordinates": [
        77.207253,
        28.561378
      ]
    },
    "city": "Delhi",
    "mobile": "9899949306"
  },
  {
    "name": "Paras chemist",
    "phone": "+(91)-9899593745",
    "address": "10/2, Yusuf Sarai-Green Park, Delhi - 110016, Mandir wali gali",
    "loc": {
      "type": "Point",
      "coordinates": [
        77.207333,
        28.561333
      ]
    },
    "city": "Delhi",
    "mobile": "9899593745"
  },
  null

,

  null,
  {
    "name": "Malviya Pharma Agencies",
    "phone": "+(91)-9013047110",
    "address": "shop no 2, Yusuf saiari, Green Park Market, Delhi - 110016, near punjab restaurant",
    "loc": {
      "type": "Point",
      "coordinates": [
        77.207253,
        28.561862
      ]
    },
    "city": "Delhi",
    "mobile": "9013047110"
  },
  {
    "name": "MALVIYA PHARMA AGENCIES",
    "phone": "+(91)-9555201003",
    "address": "Shop no. 2, Aurobindo Marg, Yusuf Sarai-Green Park, Delhi - 110016, main market yusuf Sarai",
    "loc": {
      "type": "Point",
      "coordinates": [
        77.207345,
        28.561937
      ]
    },
    "city": "Delhi",
    "mobile": "9555201003"
  },
  null,
  null,
  {
    "name": "Aark pharmaceuticals",
    "phone": "+(91)-9313851155",
    "address": "S 14, First floor, Green Park Extension, Delhi - 110016",
    "loc": {
      "type": "Point",
      "coordinates": [
        77.210333,
        28.56
      ]
    },
    "city": "Delhi",
    "mobile": "9313851155"
  },
  null,
  {
    "name": "Ganpati Ayurvedic",
    "phone": "+(91)-9899535695",
    "address": "9/1a, Yusuf Sarai-Green Park, Delhi - 110016, Main Market",
    "loc": {
      "type": "Point",
      "coordinates": [
        77.2055,
        28.550333
      ]
    },
    "city": "Delhi",
    "mobile": "9899535695"
  },
  null,
  null

,

  {
    "name": "Hindustan farm",
    "phone": "+(91)-7250030084",
    "address": "Yusuf Sarai-Green Park, Delhi - 110016",
    "loc": {
      "type": "Point",
      "coordinates": [
        77.210167,
        28.562
      ]
    },
    "city": "Delhi",
    "mobile": "7250030084"
  },
  {
    "name": "laxmi medicos",
    "phone": "+(91)-9015169454",
    "address": "shop no.63, near hanuman mandir, Yusuf Sarai-Green Park, Delhi - 110016, Gautam nagar",
    "loc": {
      "type": "Point",
      "coordinates": [
        77.212472,
        28.562037
      ]
    },
    "city": "Delhi",
    "mobile": "9015169454"
  },
  null,
  {
    "name": "Ss helpline medicos",
    "phone": "+(91)-9811599122",
    "address": "Green park, Main road, Green Park, Delhi - 110016, New metro station",
    "loc": {
      "type": "Point",
      "coordinates": [
        77.207138,
        28.560417
      ]
    },
    "city": "Delhi",
    "mobile": "9811599122"
  },
  null,
  {
    "name": "Super Medicos",
    "phone": "+(91)-9312263406",
    "address": "Shop No7, Green Park, Delhi - 110016, Near Bus Stop",
    "loc": {
      "type": "Point",
      "coordinates": [
        77.211997,
        28.537028
      ]
    },
    "city": "Delhi",
    "mobile": "9312263406"
  },
  {
    "name": "Life Line Pharmacy",
    "phone": "+(91)-9711416085",
    "address": "23/1, Ground Floor, Arjun Nagar-Safdarjung Enclave, Delhi - 110029",
    "loc": {
      "type": "Point",
      "coordinates": [
        77.200822,
        28.560147
      ]
    },
    "city": "Delhi",
    "mobile": "9711416085"
  },
  null,
  {
    "name": "Life line pharmacy",
    "phone": "+(91)-9210181165",
    "address": "23/1 gf, Arjun Nagar-Safdarjung Enclave, Delhi - 110029",
    "loc": {
      "type": "Point",
      "coordinates": [
        77.200767,
        28.560172
      ]
    },
    "city": "Delhi",
    "mobile": "9210181165"
  },
  {
    "name": "Vandana Pharmecy",
    "phone": "+(91)-8010684570",
    "address": "Shop No.K-1/136, Hauz Khas, Delhi - 110016, Near Main Market",
    "loc": {
      "type": "Point",
      "coordinates": [
        77.200753,
        28.560292
      ]
    },
    "city": "Delhi",
    "mobile": "8010684570"
  }

,

  null,
  null,
  null,
  {
    "name": "Aark pharmaceuticals",
    "phone": "+(91)-9910398393",
    "address": "Shop number 135 b, Main road, Gautam Nagar, Delhi - 110049, Opposite garg super store",
    "loc": {
      "type": "Point",
      "coordinates": [
        77.20997,
        28.559258
      ]
    },
    "city": "Delhi",
    "mobile": "9910398393"
  },
  {
    "name": "Homeopath Clinic",
    "phone": "+(91)-9891028877",
    "address": "2, D-137, shiv Mandir, Shah Pur Jat , DDA Flates, Gautam Nagar, Delhi - 110049, AIIMS",
    "loc": {
      "type": "Point",
      "coordinates": [
        77.209372,
        28.560283
      ]
    },
    "city": "Delhi",
    "mobile": "9891028877"
  },
  null,
  null,
  null,
  {
    "name": "GUARDIAN PHARMACY",
    "phone": "+(91)-9971474506",
    "address": "E-49/1, Hauz Khas, Delhi - 110016",
    "loc": {
      "type": "Point",
      "coordinates": [
        77.207557,
        28.552255
      ]
    },
    "city": "Delhi",
    "mobile": "9971474506"
  },
  {
    "name": "Saraswati medicine centre",
    "phone": "+(91)-8800813787",
    "address": "Shop No D-65, Arjun Nagar-Safdarjung Enclave, Delhi - 110029, Near Chota Grudwara",
    "loc": {
      "type": "Point",
      "coordinates": [
        77.198675,
        28.560679
      ]
    },
    "city": "Delhi",
    "mobile": "8800813787"
  }

,

  null,
  {
    "name": "Aggarwal medicos",
    "phone": "+(91)-9621118112",
    "address": "135-B ground. Floor, green park, Gautam Nagar, Delhi - 110049",
    "loc": {
      "type": "Point",
      "coordinates": [
        77.210358,
        28.559795
      ]
    },
    "city": "Delhi",
    "mobile": "9621118112"
  },
  null,
  null,
  {
    "name": "Aar k pharmasuticals",
    "phone": "+(91)-9868099135",
    "address": "135 B, Gautam Nagar, Delhi - 110049",
    "loc": {
      "type": "Point",
      "coordinates": [
        77.210442,
        28.559953
      ]
    },
    "city": "Delhi",
    "mobile": "9868099135"
  },
  {
    "name": "HIMANSHU MEDICOS",
    "phone": "+(91)-9871248652",
    "address": "192,Arjun Nagr, Main road, Safdarjung Enclave, Delhi - 110029, Near green park",
    "loc": {
      "type": "Point",
      "coordinates": [
        77.200487,
        28.56248
      ]
    },
    "city": "Delhi",
    "mobile": "9871248652"
  },
  null,
  {
    "name": "Aggarwal Chemist",
    "phone": "+(91)-9999989825",
    "address": "61-A, Shop No. 1, Ber Sarai, Delhi - 110016, Opp Old Jnu Compus",
    "loc": {
      "type": "Point",
      "coordinates": [
        77.207472,
        28.551543
      ]
    },
    "city": "Delhi",
    "mobile": "9999989825"
  },
  null,
  null

,

  null,
  null,
  null,
  null,
  null,
  null,
  null,
  null,
  null,
  null

,

  null,
  {
    "name": "GANPATI MEDICOS",
    "phone": "+(91)-9999538922",
    "address": "F-130/5, Sudarshan Road, Gautam Nagar, Delhi - 110049",
    "loc": {
      "type": "Point",
      "coordinates": [
        77.210525,
        28.56187
      ]
    },
    "city": "Delhi",
    "mobile": "9999538922"
  },
  {
    "name": "LIFE LINE MEDICOS",
    "phone": "+(91)-9910294550",
    "address": "Shop no. 15, kaushalya park, Hauz Khas, Delhi - 110016, Near police station",
    "loc": {
      "type": "Point",
      "coordinates": [
        77.205445,
        28.550055
      ]
    },
    "city": "Delhi",
    "mobile": "9910294550"
  },
  null,
  {
    "name": "Kalinga Medical Store",
    "phone": "+(91)-9891237147",
    "address": "shop no. 1, Gautam Nagar, Delhi - 110049, sudershan nagar",
    "loc": {
      "type": "Point",
      "coordinates": [
        77.210755,
        28.562072
      ]
    },
    "city": "Delhi",
    "mobile": "9891237147"
  },
  {
    "name": "KAHTU SHYAM CHEMIST",
    "phone": "+(91)-9717478501",
    "address": "Shop No. 150, Arjun Nagar-Safdarjung Enclave, Delhi - 110029, Near Bada Gurudwara",
    "loc": {
      "type": "Point",
      "coordinates": [
        77.197395,
        28.561863
      ]
    },
    "city": "Delhi",
    "mobile": "9717478501"
  },
  null,
  {
    "name": "Kalinga medicos",
    "phone": "+(91)-8527110616",
    "address": "118/3 sudarshan cinema road, Gautam Nagar, Delhi - 110049",
    "loc": {
      "type": "Point",
      "coordinates": [
        77.210747,
        28.5622
      ]
    },
    "city": "Delhi",
    "mobile": "8527110616"
  },
  null,
  {
    "name": "KHATU SHYAM MEDICOS",
    "phone": "+(91)-9871262890",
    "address": "Shop No-3, 175-A, arjun nagar, Safdarjung Enclave, Delhi - 110029, Near bada gurudwara",
    "loc": {
      "type": "Point",
      "coordinates": [
        77.197395,
        28.562175
      ]
    },
    "city": "Delhi",
    "mobile": "9871262890"
  }

,

  null,
  {
    "name": "Anil medicos",
    "phone": "+(91)-9953070081",
    "address": "Shop no-6, Hauz Khas, Delhi - 110016",
    "loc": {
      "type": "Point",
      "coordinates": [
        77.201167,
        28.549833
      ]
    },
    "city": "Delhi",
    "mobile": "9953070081"
  },
  null,
  null,
  null,
  null,
  null,
  null,
  {
    "name": "Mahalaxmi Medicos",
    "phone": "+(91)-9871796818",
    "address": "118/3, Sudarshan Road, Gautam Nagar, Delhi - 110049",
    "loc": {
      "type": "Point",
      "coordinates": [
        77.213023,
        28.558969
      ]
    },
    "city": "Delhi",
    "mobile": "9871796818"
  },
  {
    "name": "J R Pharma",
    "phone": "+(91)-9971124191",
    "address": "477 Gf Hardev Puri, Gautam Nagar, Delhi - 110049",
    "loc": {
      "type": "Point",
      "coordinates": [
        77.213023,
        28.558969
      ]
    },
    "city": "Delhi",
    "mobile": "9971124191"
  }

,

  {
    "name": "Shyam Pharma",
    "phone": "+(91)-8377910709",
    "address": "135/3, 2nd Floor, Gulmohar Park Road, Gautam Nagar, Delhi - 110049",
    "loc": {
      "type": "Point",
      "coordinates": [
        77.213023,
        28.558969
      ]
    },
    "city": "Delhi",
    "mobile": "8377910709"
  },
  null,
  {
    "name": "NEEALAM MANIOCS",
    "phone": "+(91)-9250928344",
    "address": "Shop No. 131, Arjun Nagar, Safdarjung Enclave, Delhi - 110029, Near  Kumar Dental Clinic",
    "loc": {
      "type": "Point",
      "coordinates": [
        77.196578,
        28.561755
      ]
    },
    "city": "Delhi",
    "mobile": "9250928344"
  },
  null,
  {
    "name": "122A 1",
    "phone": "+(91)-9891751934",
    "address": "Gautam Nagar, Delhi - 110049, Near Guru Dwara",
    "loc": {
      "type": "Point",
      "coordinates": [
        77.212167,
        28.5615
      ]
    },
    "city": "Delhi",
    "mobile": "9891751934"
  },
  null,
  {
    "name": "Aakash Medicos",
    "phone": "+(91)-9810569562",
    "address": "69f/2, ., Gautam Nagar, Delhi - 110049, PANCHAYATI SHIV MANDIR shiv mandir",
    "loc": {
      "type": "Point",
      "coordinates": [
        77.212233,
        28.561578
      ]
    },
    "city": "Delhi",
    "mobile": "9810569562"
  },
  null,
  {
    "name": "Gateway Pharmacy",
    "phone": "+(91)-9899279836",
    "address": "C-4/10, SDA, Safdarjung Development Area, Delhi - 110016, Opp IIT Main Gate",
    "loc": {
      "type": "Point",
      "coordinates": [
        77.200191,
        28.548979
      ]
    },
    "city": "Delhi",
    "mobile": "9899279836"
  },
  null

,

  null,
  null,
  null,
  null,
  {
    "name": "Ronit Medicos",
    "phone": "+(91)-9953641120",
    "address": "84, Shanti Niwas, Shop No. 2, Arjun Nagar, Safdarjung Enclave, Delhi - 110029, Nr Mata Mandir",
    "loc": {
      "type": "Point",
      "coordinates": [
        77.199043,
        28.56518
      ]
    },
    "city": "Delhi",
    "mobile": "9953641120"
  },
  {
    "name": "S K Medicos",
    "phone": "+(91)-9811219550",
    "address": "40/29, Gautam Nagar, Delhi - 110049, near UP dairy",
    "loc": {
      "type": "Point",
      "coordinates": [
        77.2135391111,
        28.5621204166
      ]
    },
    "city": "Delhi",
    "mobile": "9811219550"
  },
  {
    "name": "Khatu Shyam medicos",
    "phone": "+(91)-9910536366",
    "address": "shop no 42/1, safdarjung area, Safdarjung Enclave, Delhi - 110029",
    "loc": {
      "type": "Point",
      "coordinates": [
        77.195222,
        28.562675
      ]
    },
    "city": "Delhi",
    "mobile": "9910536366"
  },
  null,
  {
    "name": "Yana Herbals",
    "phone": "+(91)-9312639023",
    "address": "410,South Extn Tower, Ndse, Delhi - 110049, Masjid Moth",
    "loc": {
      "type": "Point",
      "coordinates": [
        77.2146,
        28.5607
      ]
    },
    "city": "Delhi",
    "mobile": "9312639023"
  },
  {
    "name": "V-Care",
    "phone": "+(91)-9891999914",
    "address": "B-5 Market, Safdarjung Enclave, Delhi - 110029",
    "loc": {
      "type": "Point",
      "coordinates": [
        77.195324,
        28.563473
      ]
    },
    "city": "Delhi",
    "mobile": "9891999914"
  }

,

  null,
  null,
  {
    "name": "V Care Chemist",
    "phone": "+(91)-9818076777",
    "address": "Shop 4, Safdarjung Enclave, Delhi - 110029, Block B-5 Market, Near NCC",
    "loc": {
      "type": "Point",
      "coordinates": [
        77.195324,
        28.563473
      ]
    },
    "city": "Delhi",
    "mobile": "9818076777"
  },
  null,
  null,
  null,
  {
    "name": "Aggrwal Mktg",
    "phone": "+(91)-9250363839",
    "address": "69, Safdarjung Enclave, Delhi - 110029, Arjun Nagar",
    "loc": {
      "type": "Point",
      "coordinates": [
        77.195599,
        28.563906
      ]
    },
    "city": "Delhi",
    "mobile": "9250363839"
  },
  null,
  {
    "name": "Shri Shyam Medicos",
    "phone": "+(91)-9350827520",
    "address": "Humayun Pur, Safdarjung Enclave, Delhi - 110029",
    "loc": {
      "type": "Point",
      "coordinates": [
        77.193439,
        28.561935
      ]
    },
    "city": "Delhi",
    "mobile": "9350827520"
  },
  {
    "name": "Drug Deal agencies",
    "phone": "+(91)-9999006822",
    "address": "Shop No-253a, Hauz Khas, Delhi - 110016, Hauz Khas Police Station",
    "loc": {
      "type": "Point",
      "coordinates": [
        77.2115,
        28.548833
      ]
    },
    "city": "Delhi",
    "mobile": "9999006822"
  }

,

  null,
  null,
  {
    "name": "Shiwan Medicos",
    "phone": "+(91)-9811211572",
    "address": "100/10, G.F, Gautam Nagar, Delhi - 110049, infront of dental hospital",
    "loc": {
      "type": "Point",
      "coordinates": [
        77.2127990555,
        28.5648345833
      ]
    },
    "city": "Delhi",
    "mobile": "9811211572"
  },
  {
    "name": "Shri Shyam Pharma",
    "phone": "+(91)-9824273396",
    "address": "Shop no-62R, Main Market, Safdarjung Enclave, Delhi - 110029, Humayupur",
    "loc": {
      "type": "Point",
      "coordinates": [
        77.193742,
        28.562862
      ]
    },
    "city": "Delhi",
    "mobile": "9824273396"
  },
  {
    "name": "SHRI SHYAM PHARMA",
    "phone": "+(91)-9717383420",
    "address": "Shop no-62-R, Main Humayupur Market, Humayunpur, Delhi - 110029, Near Humayupur Chawk",
    "loc": {
      "type": "Point",
      "coordinates": [
        77.193747,
        28.562878
      ]
    },
    "city": "Delhi",
    "mobile": "9717383420"
  },
  {
    "name": "GAJANAN PHARMACY",
    "phone": "+(91)-9312636261",
    "address": "Shop No.56/A, Humayun Pur, Safdarjung Enclave, Delhi - 110029",
    "loc": {
      "type": "Point",
      "coordinates": [
        77.1923,
        28.560117
      ]
    },
    "city": "Delhi",
    "mobile": "9312636261"
  },
  null,
  {
    "name": "R S Medicos",
    "phone": "+(91)-9958221372",
    "address": "Shop No.101/4, humayun Pur, Safdarjung Enclave, Delhi - 110029, Near NCC",
    "loc": {
      "type": "Point",
      "coordinates": [
        77.19262,
        28.561278
      ]
    },
    "city": "Delhi",
    "mobile": "9958221372"
  },
  null,
  null

,

  {
    "name": "V Care",
    "phone": "+(91)-9999437303",
    "address": "Shop No-1,House no-252, Shahpur Jat, Delhi - 110049, Near Gol Chakar",
    "loc": {
      "type": "Point",
      "coordinates": [
        77.211962,
        28.548553
      ]
    },
    "city": "Delhi",
    "mobile": "9999437303"
  },
  {
    "name": "Drug Deal Agency",
    "phone": "+(91)-9999909975",
    "address": "Shop No 306, Main market, Shahpur Jat, Delhi - 110049, Opposite icici bank atm",
    "loc": {
      "type": "Point",
      "coordinates": [
        77.211883,
        28.548487
      ]
    },
    "city": "Delhi",
    "mobile": "9999909975"
  },
  {
    "name": "National medical store",
    "phone": "+(91)-9818367334",
    "address": "17 A, Gautam Nagar, Delhi - 110049",
    "loc": {
      "type": "Point",
      "coordinates": [
        77.214912,
        28.563058
      ]
    },
    "city": "Delhi",
    "mobile": "9818367334"
  },
  {
    "name": "Chemist shop",
    "phone": "+(91)-9810726949",
    "address": "306, Shahpur Jat, Delhi - 110049, Nr by icici ATM",
    "loc": {
      "type": "Point",
      "coordinates": [
        77.212005,
        28.548412
      ]
    },
    "city": "Delhi",
    "mobile": "9810726949"
  },
  null,
  null,
  {
    "name": "BHARAL MEDICOS",
    "phone": "+(91)-8744090913",
    "address": "Gate no-2, AIIMS-Safdarjung Enclave, Delhi - 110029, Opp AIIMS",
    "loc": {
      "type": "Point",
      "coordinates": [
        77.207825,
        28.568213
      ]
    },
    "city": "Delhi",
    "mobile": "8744090913"
  },
  {
    "name": "GYANTOSH MEDICOS",
    "phone": "+(91)-9871251914",
    "address": "37-A/SM,GATE NO-2, AIIMS-Safdarjung Enclave, Delhi - 110029, Opp AIIMS HOSPITAL",
    "loc": {
      "type": "Point",
      "coordinates": [
        77.207803,
        28.56825
      ]
    },
    "city": "Delhi",
    "mobile": "9871251914"
  },
  null,
  null

,

  null,
  null,
  {
    "name": "Anis Medicos",
    "phone": "+(91)-9891548038",
    "address": "435 A, Gali No 1, Main Rd, Shahpur Jat, Delhi - 110049, Sany Bzr, Kardampuri",
    "loc": {
      "type": "Point",
      "coordinates": [
        77.21394,
        28.549064
      ]
    },
    "city": "Delhi",
    "mobile": "9891548038"
  },
  {
    "name": "Shivam Chemists",
    "phone": "+(91)-9818453505",
    "address": "41, Shahpur Jat, Delhi - 110049, Near Govertment Sr Sec Co Educational School",
    "loc": {
      "type": "Point",
      "coordinates": [
        77.21394,
        28.549064
      ]
    },
    "city": "Delhi",
    "mobile": "9818453505"
  },
  null,
  {
    "name": "Sasti Dawai",
    "phone": "+(91)-8826491743",
    "address": "47 B, Arjun Nagar-Safdarjung Enclave, Delhi - 110029, Near Safdurjung Enclave",
    "loc": {
      "type": "Point",
      "coordinates": [
        77.20247,
        28.56942
      ]
    },
    "city": "Delhi",
    "mobile": "8826491743"
  },
  null,
  null,
  null,
  null

,

  null,
  null,
  {
    "name": "Vardhaman Chemists & Cosmetics",
    "phone": "+(91)-9654293535",
    "address": "Shop no.18, Safdarjung Enclave, Delhi - 110029, B-2 Market",
    "loc": {
      "type": "Point",
      "coordinates": [
        77.191345,
        28.562978
      ]
    },
    "city": "Delhi",
    "mobile": "9654293535"
  },
  null,
  {
    "name": "Kireet & co.",
    "phone": "+(91)-9650613185",
    "address": "Shop No - 184, Shahpur Jat, Delhi - 110049, Near Dilip chowk",
    "loc": {
      "type": "Point",
      "coordinates": [
        77.21428,
        28.547937
      ]
    },
    "city": "Delhi",
    "mobile": "9650613185"
  },
  null,
  {
    "name": "AHUJA CHEMIST",
    "phone": "+(91)-9717970613",
    "address": "Shop no 29, Arjun Nagar-Safdarjung Enclave, Delhi - 110029, Near green field school",
    "loc": {
      "type": "Point",
      "coordinates": [
        77.194667,
        28.567167
      ]
    },
    "city": "Delhi",
    "mobile": "9717970613"
  },
  null,
  {
    "name": "Medicine corner",
    "phone": "+(91)-9250476536",
    "address": "Shop no.8, Safdarjung Enclave, Delhi - 110029, Central market",
    "loc": {
      "type": "Point",
      "coordinates": [
        77.194667,
        28.567333
      ]
    },
    "city": "Delhi",
    "mobile": "9250476536"
  },
  null

,

  null,
  null,
  {
    "name": "Ganpati Medicos",
    "phone": "+(91)-9312381688",
    "address": "Shop No-5, dda market, Shahpur Jat, Delhi - 110049, near rainbow backery",
    "loc": {
      "type": "Point",
      "coordinates": [
        77.216483,
        28.547662
      ]
    },
    "city": "Delhi",
    "mobile": "9312381688"
  },
  {
    "name": "Vaibhav store",
    "phone": "+(91)-9810683408",
    "address": "Shop no 439, South Extension 2, Delhi - 110049, Near main market",
    "loc": {
      "type": "Point",
      "coordinates": [
        77.218833,
        28.564333
      ]
    },
    "city": "Delhi",
    "mobile": "9810683408"
  },
  {
    "name": "Ravi Medicos",
    "phone": "+(91)-9810215061",
    "address": "219, Masjid, Masjid Moth-South Extension I, Delhi - 110049, South Extension Part-2",
    "loc": {
      "type": "Point",
      "coordinates": [
        77.219667,
        28.563
      ]
    },
    "city": "Delhi",
    "mobile": "9810215061"
  },
  {
    "name": "Bhalotia Chemist",
    "phone": "+(91)-9711729085",
    "address": "10, Kalu Sarai market, Kalu Sarai-Sarvapriya Vihar, Delhi - 110016, Near Made Easy",
    "loc": {
      "type": "Point",
      "coordinates": [
        77.202575,
        28.542433
      ]
    },
    "city": "Delhi",
    "mobile": "9711729085"
  },
  null,
  null,
  {
    "name": "Akash Medicos",
    "phone": "+(91)-9810473787",
    "address": "36, Kidwai Nagar, Delhi - 110023, South Mkt",
    "loc": {
      "type": "Point",
      "coordinates": [
        77.208726,
        28.571708
      ]
    },
    "city": "Delhi",
    "mobile": "9810473787"
  },
  {
    "name": "Nagpal Medical Store",
    "phone": "+(91)-9811141430",
    "address": "Sarojini Nagar, Delhi - 110023",
    "loc": {
      "type": "Point",
      "coordinates": [
        77.194832,
        28.569817
      ]
    },
    "city": "Delhi",
    "mobile": "9811141430"
  }

,

  {
    "name": "Gupta Medicos",
    "phone": "+(91)-8860368905",
    "address": "Shop no:-G-1/389, Mandir complex, South Extension 2, Delhi - 110049, Leela Ram Market",
    "loc": {
      "type": "Point",
      "coordinates": [
        77.219545,
        28.563963
      ]
    },
    "city": "Delhi",
    "mobile": "8860368905"
  },
  null,
  null,
  {
    "name": "Laj Medical Store",
    "phone": "+(91)-8826728642",
    "address": "117, Ring road market, Sarojini Nagar, Delhi - 110023, Near Bus stand",
    "loc": {
      "type": "Point",
      "coordinates": [
        77.194667,
        28.569833
      ]
    },
    "city": "Delhi",
    "mobile": "8826728642"
  },
  null,
  null,
  {
    "name": "South medicos",
    "phone": "+(91)-9278695444",
    "address": "B-2, Ndse 2, Delhi - 110049",
    "loc": {
      "type": "Point",
      "coordinates": [
        77.219688,
        28.564005
      ]
    },
    "city": "Delhi",
    "mobile": "9278695444"
  },
  {
    "name": "Life Line pharmaci",
    "phone": "+(91)-9818952857",
    "address": "389-B-4, Masjid moth, South Extension 2, Delhi - 110049",
    "loc": {
      "type": "Point",
      "coordinates": [
        77.219703,
        28.564013
      ]
    },
    "city": "Delhi",
    "mobile": "9818952857"
  },
  null,
  {
    "name": "Sharma Medicos",
    "phone": "+(91)-9212431466",
    "address": "209/6,South Extension Plaza, Masjid Moth-South Extension I, Delhi - 110049, Opp. Aggarwal Sweet",
    "loc": {
      "type": "Point",
      "coordinates": [
        77.219987,
        28.563578
      ]
    },
    "city": "Delhi",
    "mobile": "9212431466"
  }

,

  {
    "name": "South end medicos",
    "phone": "+(91)-9873014969",
    "address": "B-2, Leela ram market, South Extension 2, Delhi - 110049, Plaza-1",
    "loc": {
      "type": "Point",
      "coordinates": [
        77.219763,
        28.563995
      ]
    },
    "city": "Delhi",
    "mobile": "9873014969"
  },
  {
    "name": "Shivani medicos",
    "phone": "+(91)-9717845694",
    "address": "B-7, South Extension, South Extension 2, Delhi - 110049, Ndse2",
    "loc": {
      "type": "Point",
      "coordinates": [
        77.219667,
        28.564167
      ]
    },
    "city": "Delhi",
    "mobile": "9717845694"
  },
  null,
  null,
  null,
  {
    "name": "Sawariya Chemist",
    "phone": "+(91)-9310022050",
    "address": "Shop No-1 Basement274, Leela Ram Market, South Extension 2, Delhi - 110049, Near Aggarwal Sweets,",
    "loc": {
      "type": "Point",
      "coordinates": [
        77.219987,
        28.563788
      ]
    },
    "city": "Delhi",
    "mobile": "9310022050"
  },
  {
    "name": "Kamal Pharmacy",
    "phone": "+(91)-8527158789",
    "address": "10 DDA Market, Kalu Sarai-Sarvapriya Vihar, Delhi - 110016, Near Parkash Depot",
    "loc": {
      "type": "Point",
      "coordinates": [
        77.2044,
        28.541805
      ]
    },
    "city": "Delhi",
    "mobile": "8527158789"
  },
  null,
  null,
  null

,

  null,
  null,
  {
    "name": "Pal Medicos",
    "phone": "+(91)-9312685136",
    "address": "Shop No .-2,129, Mohammad Pur-Bhikaji Cama Place, Delhi - 110066, Opposite Dr. Omkar Singh Clinic",
    "loc": {
      "type": "Point",
      "coordinates": [
        77.187531,
        28.565339
      ]
    },
    "city": "Delhi",
    "mobile": "9312685136"
  },
  {
    "name": "Mehra medicos",
    "phone": "+(91)-7827347192",
    "address": "B9, South Extension, South Extension 2, Delhi - 110049, Ndse2",
    "loc": {
      "type": "Point",
      "coordinates": [
        77.219167,
        28.567667
      ]
    },
    "city": "Delhi",
    "mobile": "7827347192"
  },
  {
    "name": "NEW FRIEND CHEMIST",
    "phone": "+(91)-7503514410",
    "address": "Shop no-25, Jia sarai market, Jia Sarai-IIT Delhi, Delhi - 110016, Near HDFC bank",
    "loc": {
      "type": "Point",
      "coordinates": [
        77.189537,
        28.5462
      ]
    },
    "city": "Delhi",
    "mobile": "7503514410"
  },
  {
    "name": "Krishna Medical Store",
    "phone": "+(91)-9911603736",
    "address": "House no.3, Shop no.1, Mohammadpur, Delhi - 110066",
    "loc": {
      "type": "Point",
      "coordinates": [
        77.187487,
        28.565862
      ]
    },
    "city": "Delhi",
    "mobile": "9911603736"
  },
  {
    "name": "Krishna medical store",
    "phone": "+(91)-9711000074",
    "address": "Shop No. -1 House No. -3a, Main market, Mohammadpur, Delhi - 110066, Near k k kitchen",
    "loc": {
      "type": "Point",
      "coordinates": [
        77.187387,
        28.565788
      ]
    },
    "city": "Delhi",
    "mobile": "9711000074"
  },
  null,
  null,
  null

,

  {
    "name": "Lavi Kotilya Medicoes",
    "phone": "+(91)-9873352590",
    "address": "74-A/1, Begampur, Malviya Nagar, Delhi - 110017, Near Sarvoday Enc.",
    "loc": {
      "type": "Point",
      "coordinates": [
        77.205333,
        28.539667
      ]
    },
    "city": "Delhi",
    "mobile": "9873352590"
  },
  {
    "name": "deep medicos",
    "phone": "+(91)-9811302067",
    "address": "128, shop no.1, mohammadpur, Mohammadpur, Delhi - 110066",
    "loc": {
      "type": "Point",
      "coordinates": [
        77.186112,
        28.564817
      ]
    },
    "city": "Delhi",
    "mobile": "9811302067"
  },
  null,
  null,
  null,
  {
    "name": "Hari Medicines",
    "phone": "+(91)-8527211103",
    "address": "Shop No.128, Mohammadpur, Delhi - 110066",
    "loc": {
      "type": "Point",
      "coordinates": [
        77.186372,
        28.565367
      ]
    },
    "city": "Delhi",
    "mobile": "8527211103"
  },
  null,
  {
    "name": "Saraswati Medicos",
    "phone": "+(91)-9871891293",
    "address": "Shop No 3,House No -130, Mohammad Pur-Bhikaji Cama Place, Delhi - 110066, Near Bhikaji Cama Place",
    "loc": {
      "type": "Point",
      "coordinates": [
        77.1865,
        28.565667
      ]
    },
    "city": "Delhi",
    "mobile": "9871891293"
  },
  {
    "name": "Chetan medicos",
    "phone": "+(91)-9868091027",
    "address": "Hno. G128/2, Mohammadpur, Delhi - 110066, Near main market",
    "loc": {
      "type": "Point",
      "coordinates": [
        77.186,
        28.564833
      ]
    },
    "city": "Delhi",
    "mobile": "9868091027"
  },
  {
    "name": "Rise medical store",
    "phone": "+(91)-9899396211",
    "address": "Shop no 128, Mohammadpur, Delhi - 110066, Near central bank atm",
    "loc": {
      "type": "Point",
      "coordinates": [
        77.186167,
        28.565167
      ]
    },
    "city": "Delhi",
    "mobile": "9899396211"
  }

,

  null,
  null,
  {
    "name": "Hari medicines",
    "phone": "+(91)-9899508937",
    "address": "Shop No 128/A, Mohammadpur, Delhi - 110066, Opposite Central Bank ATM",
    "loc": {
      "type": "Point",
      "coordinates": [
        77.186167,
        28.5655
      ]
    },
    "city": "Delhi",
    "mobile": "9899508937"
  },
  null,
  null,
  null,
  {
    "name": "R R Chemist & Cosmetics",
    "phone": "+(91)-9873742781",
    "address": "Shop No.2, House no.129, Mohammadpur, Delhi - 110066",
    "loc": {
      "type": "Point",
      "coordinates": [
        77.186203,
        28.565805
      ]
    },
    "city": "Delhi",
    "mobile": "9873742781"
  },
  null,
  null,
  {
    "name": "Vikram Chemists",
    "phone": "+(91)-9818367533",
    "address": "S No 14, Netaji Nagar, Delhi - 110023, Nr Post Office",
    "loc": {
      "type": "Point",
      "coordinates": [
        77.210007,
        28.574528
      ]
    },
    "city": "Delhi",
    "mobile": "9818367533"
  }

,

  null,
  {
    "name": "Fruit Corner Chemist",
    "phone": "+(91)-9899078183",
    "address": "C-1, Main market, Ndse 2, Delhi - 110049, South Extension-2",
    "loc": {
      "type": "Point",
      "coordinates": [
        77.221047,
        28.567663
      ]
    },
    "city": "Delhi",
    "mobile": "9899078183"
  },
  null,
  null,
  null,
  {
    "name": "Bansal Medicos & Cosmetic",
    "phone": "+(91)-9289066613",
    "address": "130-B/1, Ground Floor, Gautam Nagar, Delhi - 110049",
    "loc": {
      "type": "Point",
      "coordinates": [
        77.224978,
        28.562606
      ]
    },
    "city": "Delhi",
    "mobile": "9289066613"
  },
  null,
  null,
  null,
  {
    "name": "APPOLO PHARMACY",
    "phone": "+(91)-8826992258",
    "address": "Shop No- E-10, South ex road, South Extension 1, Delhi - 110049, Near Manav Clinic",
    "loc": {
      "type": "Point",
      "coordinates": [
        77.219842,
        28.570675
      ]
    },
    "city": "Delhi",
    "mobile": "8826992258"
  }

,

  {
    "name": "Apollo pharmacy",
    "phone": "+(91)-9891045643",
    "address": "E-10, E block, South Extension 1, Delhi - 110049, Near manav clinic",
    "loc": {
      "type": "Point",
      "coordinates": [
        77.21982,
        28.570695
      ]
    },
    "city": "Delhi",
    "mobile": "9891045643"
  },
  null,
  null,
  null,
  null,
  null,
  null,
  null,
  null,
  null

,

  {
    "name": "Health Care Medicos",
    "phone": "+(91)-9313004570",
    "address": "17, Ndse, Delhi - 110049, Gautam Ngr",
    "loc": {
      "type": "Point",
      "coordinates": [
        77.218532,
        28.572292
      ]
    },
    "city": "Delhi",
    "mobile": "9313004570"
  },
  null,
  null,
  null,
  null,
  null,
  null,
  null,
  {
    "name": "medicine point",
    "phone": "+(91)-9971013595",
    "address": "h-30, south ex market, South Extension, Delhi - 110049, near smu",
    "loc": {
      "type": "Point",
      "coordinates": [
        77.221022,
        28.571192
      ]
    },
    "city": "Delhi",
    "mobile": "9971013595"
  },
  null

,

  null,
  null,
  null,
  null,
  {
    "name": "Nutrition House & Sports Equip...",
    "phone": "+(91)-9654140499",
    "address": "F-226, Katwaria Sarai, Delhi - 110016, Near shiv Mandir",
    "loc": {
      "type": "Point",
      "coordinates": [
        77.18923,
        28.541212
      ]
    },
    "city": "Delhi",
    "mobile": "9654140499"
  },
  {
    "name": "98.4",
    "phone": "+(91)-9717284172",
    "address": "16, new mkt, Malviya Nagar, Delhi - 110017, hanuman mandir",
    "loc": {
      "type": "Point",
      "coordinates": [
        77.213142,
        28.538062
      ]
    },
    "city": "Delhi",
    "mobile": "9717284172"
  },
  {
    "name": "KASHISH MEDICAL STORE",
    "phone": "+(91)-8860209699",
    "address": "125 shop no.-2, Savitri nagar, Malviya Nagar, Delhi - 110017",
    "loc": {
      "type": "Point",
      "coordinates": [
        77.219167,
        28.541167
      ]
    },
    "city": "Delhi",
    "mobile": "8860209699"
  },
  null,
  null,
  {
    "name": "AYUSHMAAN BHAV MEDICOS",
    "phone": "+(91)-9871608984",
    "address": "SHOP NO.3 15/199, Main shivalik road, Malviya Nagar, Delhi - 110017, Near Sunil Nursing Home",
    "loc": {
      "type": "Point",
      "coordinates": [
        77.210228,
        28.53697
      ]
    },
    "city": "Delhi",
    "mobile": "9871608984"
  }

,

  null,
  null,
  null,
  null,
  null,
  {
    "name": "Life Care Pharmacy",
    "phone": "+(91)-9899097095",
    "address": "Shop-3,19/250, Upper Ground Floor, Malviya Nagar, Delhi - 110017, Near Begampur Bus Stop",
    "loc": {
      "type": "Point",
      "coordinates": [
        77.209833,
        28.536667
      ]
    },
    "city": "Delhi",
    "mobile": "9899097095"
  },
  {
    "name": "Viveka medicos",
    "phone": "+(91)-9999383852",
    "address": "Shop no 3, A-22/4, South Extension 1, Delhi - 110049, Near Amrit nagar",
    "loc": {
      "type": "Point",
      "coordinates": [
        77.218963,
        28.573958
      ]
    },
    "city": "Delhi",
    "mobile": "9999383852"
  },
  null,
  {
    "name": "Sunder Medicos Chemist & Medicos",
    "phone": "+(91)-9811038664",
    "address": "Shop no-4, Sec-1, Market, RK Puram Sector 1, Delhi - 110022",
    "loc": {
      "type": "Point",
      "coordinates": [
        77.1815,
        28.5645
      ]
    },
    "city": "Delhi",
    "mobile": "9811038664"
  },
  {
    "name": "Aggarwal medicos",
    "phone": "+(91)-9311099817",
    "address": "Shop No-2,, R K Puram, Delhi - 110022, Sector-1 Market",
    "loc": {
      "type": "Point",
      "coordinates": [
        77.1815,
        28.5645
      ]
    },
    "city": "Delhi",
    "mobile": "9311099817"
  }

,

  null,
  null,
  null,
  null,
  null,
  null,
  null,
  {
    "name": "New Modern Chemist",
    "phone": "+(91)-9811440111",
    "address": "P-24, Old pillanji, Sarojini Nagar, Delhi - 110023, Near jain mandir",
    "loc": {
      "type": "Point",
      "coordinates": [
        77.2015,
        28.5785
      ]
    },
    "city": "Delhi",
    "mobile": "9811440111"
  },
  {
    "name": "New modern chemists",
    "phone": "+(91)-9582577769",
    "address": "P24 Old Pillanji, Pillanji Village, Sarojini Nagar, Delhi - 110023",
    "loc": {
      "type": "Point",
      "coordinates": [
        77.2015,
        28.5785
      ]
    },
    "city": "Delhi",
    "mobile": "9582577769"
  },
  {
    "name": "Verma brothers",
    "phone": "+(91)-9910273627",
    "address": "Shop no 14, Main market, Malviya Nagar, Delhi - 110017, Near moti sweets",
    "loc": {
      "type": "Point",
      "coordinates": [
        77.211662,
        28.536863
      ]
    },
    "city": "Delhi",
    "mobile": "9910273627"
  }

,

  {
    "name": "arora sons chemists",
    "phone": "+(91)-9560953195",
    "address": "c-1, main market, Malviya Nagar, Delhi - 110017, dominos",
    "loc": {
      "type": "Point",
      "coordinates": [
        77.212097,
        28.536987
      ]
    },
    "city": "Delhi",
    "mobile": "9560953195"
  },
  {
    "name": "Arora Bros",
    "phone": "+(91)-9811406699",
    "address": "Shop no. 2, Main, Laxmibai Nagar, Delhi - 110023, Nr. Metro satation",
    "loc": {
      "type": "Point",
      "coordinates": [
        77.209,
        28.578333
      ]
    },
    "city": "Delhi",
    "mobile": "9811406699"
  },
  {
    "name": "Aayushman bhav medicos",
    "phone": "+(91)-9212155158",
    "address": "Shop no-3,15/199, Shivalik road, Malviya Nagar, Delhi - 110017, Near Sunil hospital",
    "loc": {
      "type": "Point",
      "coordinates": [
        77.208983,
        28.536087
      ]
    },
    "city": "Delhi",
    "mobile": "9212155158"
  },
  {
    "name": "guardian lifecare pvt.ltd",
    "phone": "+(91)-9873262166",
    "address": "shop no.2 block-c, main market, Malviya Nagar, Delhi - 110017",
    "loc": {
      "type": "Point",
      "coordinates": [
        77.212172,
        28.536842
      ]
    },
    "city": "Delhi",
    "mobile": "9873262166"
  },
  null,
  null,
  {
    "name": "Guardian pharmacy",
    "phone": "+(91)-9716379245",
    "address": "Shop no. 02 C-3, Main market, Malviya Nagar, Delhi - 110017, Near Moti sweets",
    "loc": {
      "type": "Point",
      "coordinates": [
        77.211992,
        28.536687
      ]
    },
    "city": "Delhi",
    "mobile": "9716379245"
  },
  {
    "name": "ANSARI HEALTH ZONE",
    "phone": "+(91)-9899920073",
    "address": "3/73, Hauz rani, Khirki-Malviya Nagar, Delhi - 110017, Near malviya public school",
    "loc": {
      "type": "Point",
      "coordinates": [
        77.211945,
        28.536642
      ]
    },
    "city": "Delhi",
    "mobile": "9899920073"
  },
  null,
  null

,

  null,
  {
    "name": "SHARMA MEDICOS",
    "phone": "+(91)-9636765467",
    "address": "C-9, Main Road, Malviya Nagar, Delhi - 110017, Near Dominos",
    "loc": {
      "type": "Point",
      "coordinates": [
        77.211395,
        28.536362
      ]
    },
    "city": "Delhi",
    "mobile": "9636765467"
  },
  {
    "name": "Parkash Chemist",
    "phone": "+(91)-9958258788",
    "address": "C-31 malviya nagar market, Main Road, Malviya Nagar, Delhi - 110017, Hdfc bank",
    "loc": {
      "type": "Point",
      "coordinates": [
        77.211128,
        28.536278
      ]
    },
    "city": "Delhi",
    "mobile": "9958258788"
  },
  {
    "name": "Shri Sai Baba Chemist",
    "phone": "+(91)-8860371427",
    "address": "1689, Kotla Mubarak Pur, South Extension 1, Delhi - 110049, Near Bengali Sweet",
    "loc": {
      "type": "Point",
      "coordinates": [
        77.221692,
        28.572764
      ]
    },
    "city": "Delhi",
    "mobile": "8860371427"
  },
  {
    "name": "JAY SAI RAM CHEMIST",
    "phone": "+(91)-8802681653",
    "address": "Shop1-61/A, Ber Sarai, Ber Sarai, Delhi - 110016, Opp. JNU old campus",
    "loc": {
      "type": "Point",
      "coordinates": [
        77.181222,
        28.548762
      ]
    },
    "city": "Delhi",
    "mobile": "8802681653"
  },
  null,
  {
    "name": "Madhvi medicos & cosmetics",
    "phone": "+(91)-9717722031",
    "address": "F-113, Shaheed jeet Singh marg, Katwaria Sarai, Delhi - 110016, Near panchayat ghar",
    "loc": {
      "type": "Point",
      "coordinates": [
        77.186767,
        28.541575
      ]
    },
    "city": "Delhi",
    "mobile": "9717722031"
  },
  {
    "name": "Jai Sai Ram Chemist",
    "phone": "+(91)-9958969306",
    "address": "Shop No 1-61/A, Ber Sarai, Delhi - 110016",
    "loc": {
      "type": "Point",
      "coordinates": [
        77.1810369405,
        28.5490094786
      ]
    },
    "city": "Delhi",
    "mobile": "9958969306"
  },
  {
    "name": "Prakash chemist",
    "phone": "+(91)-9818490651",
    "address": "C-31 Malviya nagar, Malviya Nagar, Delhi - 110017, Near HDfc bank",
    "loc": {
      "type": "Point",
      "coordinates": [
        77.211097,
        28.536145
      ]
    },
    "city": "Delhi",
    "mobile": "9818490651"
  },
  null

,

  null,
  null,
  {
    "name": "Lodhi Medicos",
    "phone": "+(91)-9250691933",
    "address": "1819/5, Dhola Complex, Dhola complex, Kotla Mubarakpur, Delhi - 110003, Uday Chand Marg",
    "loc": {
      "type": "Point",
      "coordinates": [
        77.223833,
        28.571
      ]
    },
    "city": "Delhi",
    "mobile": "9250691933"
  },
  null,
  {
    "name": "Siddharth Medical",
    "phone": "+(91)-9810937976",
    "address": "Shop No-9, N-15,Main Market, Lgf, Savitri Nagar, Malviya Nagar, Delhi - 110017, Opposite Shiv Mandir",
    "loc": {
      "type": "Point",
      "coordinates": [
        77.217125,
        28.538242
      ]
    },
    "city": "Delhi",
    "mobile": "9810937976"
  },
  null,
  null,
  null,
  null,
  null

,

  {
    "name": "Raman medicals",
    "phone": "+(91)-9968706197",
    "address": "Ayur Vigyan Nagar, Delhi - 110049",
    "loc": {
      "type": "Point",
      "coordinates": [
        77.228102,
        28.564899
      ]
    },
    "city": "Delhi",
    "mobile": "9968706197"
  },
  null,
  null,
  {
    "name": "Ish agencies",
    "phone": "+(91)-9868904205",
    "address": "118, Main road, Katwaria Sarai, Delhi - 110016, Near well no 2",
    "loc": {
      "type": "Point",
      "coordinates": [
        77.186745,
        28.540828
      ]
    },
    "city": "Delhi",
    "mobile": "9868904205"
  },
  {
    "name": "Shally Cosmo Medicare",
    "phone": "+(91)-9312291558",
    "address": "Shop No.35, Netaji Nagar Market, Netaji Nagar, Delhi - 110023, Near Candrya Bhandar",
    "loc": {
      "type": "Point",
      "coordinates": [
        77.188,
        28.574667
      ]
    },
    "city": "Delhi",
    "mobile": "9312291558"
  },
  {
    "name": "Kashish Medical Store",
    "phone": "+(91)-9871307229",
    "address": "125, Shop No-2, Savitri Nagar-Sheikh Sarai, Delhi - 110017, Near Syndicate bank",
    "loc": {
      "type": "Point",
      "coordinates": [
        77.219375,
        28.539112
      ]
    },
    "city": "Delhi",
    "mobile": "9871307229"
  },
  {
    "name": "Sonam chemist and cosmetics",
    "phone": "+(91)-9582543518",
    "address": "Shop-9, 1734, Gurudwara road, Kotla Mubarakpur, Delhi - 110003",
    "loc": {
      "type": "Point",
      "coordinates": [
        77.2245,
        28.571
      ]
    },
    "city": "Delhi",
    "mobile": "9582543518"
  },
  null,
  {
    "name": "Sonam Chemist & Cosmetics",
    "phone": "+(91)-9899924573",
    "address": "1734, Kotla Mubarak, New Delhi, Gurudwara Road, Kotla Mubarakpur, Delhi - 110003",
    "loc": {
      "type": "Point",
      "coordinates": [
        77.224572,
        28.571033
      ]
    },
    "city": "Delhi",
    "mobile": "9899924573"
  },
  null

,

  {
    "name": "Navjeevan chemist",
    "phone": "+(91)-9311274484",
    "address": "P-2, Sarojini Nagar, Delhi - 110023, Vikas Commercial Complex",
    "loc": {
      "type": "Point",
      "coordinates": [
        77.201308,
        28.579788
      ]
    },
    "city": "Delhi",
    "mobile": "9311274484"
  },
  {
    "name": "Jeewan Parkash Chemist",
    "phone": "+(91)-9810117731",
    "address": "Shop No P 224, Brigadier Hoshiyar Singh Road, Sarojini Nagar, Delhi - 110023",
    "loc": {
      "type": "Point",
      "coordinates": [
        77.200492,
        28.579705
      ]
    },
    "city": "Delhi",
    "mobile": "9810117731"
  },
  null,
  null,
  null,
  null,
  null,
  {
    "name": "Nav Jiwan Chemist",
    "phone": "+(91)-9540714376",
    "address": "P-2, Vikas Complex, Pilangi Village, Sarojini Nagar, Delhi - 110023",
    "loc": {
      "type": "Point",
      "coordinates": [
        77.201333,
        28.579833
      ]
    },
    "city": "Delhi",
    "mobile": "9540714376"
  },
  null,
  null

,

  null,
  null,
  null,
  {
    "name": "Maitreya Health Care",
    "phone": "+(91)-9211659618",
    "address": "J-1/62, Malviya Nagar, Delhi - 110017, Khidki Extn",
    "loc": {
      "type": "Point",
      "coordinates": [
        77.212636,
        28.535747
      ]
    },
    "city": "Delhi",
    "mobile": "9211659618"
  },
  null,
  null,
  null,
  {
    "name": "Sarvodaya Chemist",
    "phone": "+(91)-9810115171",
    "address": "C-21,Shop No-1, Malviya Nagar, Delhi - 110017",
    "loc": {
      "type": "Point",
      "coordinates": [
        77.212636,
        28.535747
      ]
    },
    "city": "Delhi",
    "mobile": "9810115171"
  },
  {
    "name": "Saheem Shah Khan",
    "phone": "+(91)-9891003571",
    "address": "42, Malviya Nagar, Delhi - 110017, Above Priya Tent House,Corner Mkt",
    "loc": {
      "type": "Point",
      "coordinates": [
        77.212636,
        28.535747
      ]
    },
    "city": "Delhi",
    "mobile": "9891003571"
  },
  {
    "name": "SAI MEDICOS",
    "phone": "+(91)-9711411470",
    "address": "F-128, Shaheed jeet Singh marg, Katwaria Sarai, Delhi - 110016, Near mandarin restaurant",
    "loc": {
      "type": "Point",
      "coordinates": [
        77.185828,
        28.54118
      ]
    },
    "city": "Delhi",
    "mobile": "9711411470"
  }

,

  null,
  null,
  {
    "name": "Mahadeo homoepathic pharmacy",
    "phone": "+(91)-9811224985",
    "address": "Shop no.-P-218, Sarojini Nagar, Delhi - 110023, Near Indra niketan girls hostel",
    "loc": {
      "type": "Point",
      "coordinates": [
        77.201,
        28.579833
      ]
    },
    "city": "Delhi",
    "mobile": "9811224985"
  },
  null,
  null,
  {
    "name": "Hospicare pharma",
    "phone": "+(91)-9654134715",
    "address": "5, No 3, Sarojini Vihar-Sarojini Nagar, Delhi - 110023",
    "loc": {
      "type": "Point",
      "coordinates": [
        77.200417,
        28.579903
      ]
    },
    "city": "Delhi",
    "mobile": "9654134715"
  },
  null,
  {
    "name": "J.B.B. Medicos",
    "phone": "+(91)-9654337427",
    "address": "64, Bapu Park, Kotla Mubarakpur, Delhi - 110003",
    "loc": {
      "type": "Point",
      "coordinates": [
        77.220833,
        28.575
      ]
    },
    "city": "Delhi",
    "mobile": "9654337427"
  },
  null,
  null

,

  null,
  null,
  {
    "name": "Sakhsi medicos",
    "phone": "+(91)-9911597984",
    "address": "Shop no 34, Katwaria Sarai, Delhi - 110016",
    "loc": {
      "type": "Point",
      "coordinates": [
        77.1855,
        28.540833
      ]
    },
    "city": "Delhi",
    "mobile": "9911597984"
  },
  null,
  {
    "name": "B Jain Homoeo Agencies",
    "phone": "+(91)-9717931689",
    "address": "wazir nagar, shop no -6, 1400/1,, hans plaza ,, gali no -7, Kotla Mubarakpur, Delhi - 110003",
    "loc": {
      "type": "Point",
      "coordinates": [
        77.225312,
        28.571217
      ]
    },
    "city": "Delhi",
    "mobile": "9717931689"
  },
  {
    "name": "Dev Medics",
    "phone": "+(91)-9811647326",
    "address": "C-49, Bapu Park, Kotla Mubarakpur, Delhi - 110003, Near Moti Hotel",
    "loc": {
      "type": "Point",
      "coordinates": [
        77.220992,
        28.575178
      ]
    },
    "city": "Delhi",
    "mobile": "9811647326"
  },
  null,
  {
    "name": "Sahil Medicos",
    "phone": "+(91)-8447444744",
    "address": "127/1A, Katwaria sarai market, Katwaria Sarai, Delhi - 110016, Near PNB ATM",
    "loc": {
      "type": "Point",
      "coordinates": [
        77.185447,
        28.540758
      ]
    },
    "city": "Delhi",
    "mobile": "8447444744"
  },
  {
    "name": "Negi Chemist",
    "phone": "+(91)-8860178295",
    "address": "2028-C, lodhi road, Kotla Mubarakpur, Delhi - 110003, Pillnji,Kotala Mubarakpur",
    "loc": {
      "type": "Point",
      "coordinates": [
        77.21958,
        28.576205
      ]
    },
    "city": "Delhi",
    "mobile": "8860178295"
  },
  {
    "name": "Mezzone remedies",
    "phone": "+(91)-9213882837",
    "address": "D76, Malviya Nagar, Delhi - 110017",
    "loc": {
      "type": "Point",
      "coordinates": [
        77.209853,
        28.534472
      ]
    },
    "city": "Delhi",
    "mobile": "9213882837"
  }

,

  {
    "name": "BIONIC PHARMACEUTICALS",
    "phone": "+(91)-9136363605",
    "address": "Shop No. 10, Malviya Nagar, Delhi - 110017, main market",
    "loc": {
      "type": "Point",
      "coordinates": [
        77.20993,
        28.534462
      ]
    },
    "city": "Delhi",
    "mobile": "9136363605"
  },
  {
    "name": "Kamal Chemist's",
    "phone": "+(91)-9312507508",
    "address": "124/A, Katwaria sarai market, Katwaria Sarai, Delhi - 110016, Near Bus Stand",
    "loc": {
      "type": "Point",
      "coordinates": [
        77.18557,
        28.540587
      ]
    },
    "city": "Delhi",
    "mobile": "9312507508"
  },
  null,
  null,
  null,
  {
    "name": "Gama medicos",
    "phone": "+(91)-8285630452",
    "address": "shop no. 1 gf McD no. 954, Kotla Mubarakpur, Delhi - 110003, arjan nagar",
    "loc": {
      "type": "Point",
      "coordinates": [
        77.226037,
        28.573128
      ]
    },
    "city": "Delhi",
    "mobile": "8285630452"
  },
  {
    "name": "Shivam Medicos",
    "phone": "+(91)-9818505793",
    "address": "Shop No. 377, Main Road, Katwaria Sarai, Delhi - 110016, Behind Katwaria Sarai Bus Stand",
    "loc": {
      "type": "Point",
      "coordinates": [
        77.185913,
        28.54027
      ]
    },
    "city": "Delhi",
    "mobile": "9818505793"
  },
  {
    "name": "SAHIL MEDICOS",
    "phone": "+(91)-9910614053",
    "address": "A-127, Main market, Hauz Khas, Delhi - 110016, main Road",
    "loc": {
      "type": "Point",
      "coordinates": [
        77.185408,
        28.540688
      ]
    },
    "city": "Delhi",
    "mobile": "9910614053"
  },
  {
    "name": "Health care medical store",
    "phone": "+(91)-9971935887",
    "address": "J-1/63, Gupta Colony, Khirki Extension, Gupta Colony, Malviya Nagar, Delhi - 110017, Near Tikona Park",
    "loc": {
      "type": "Point",
      "coordinates": [
        77.209472,
        28.53433
      ]
    },
    "city": "Delhi",
    "mobile": "9971935887"
  },
  {
    "name": "V Care Pharmacy",
    "phone": "+(91)-9310784320",
    "address": "R-101, Malviya Nagar, Delhi - 110017, Near Krishna Mandir",
    "loc": {
      "type": "Point",
      "coordinates": [
        77.209472,
        28.53433
      ]
    },
    "city": "Delhi",
    "mobile": "9310784320"
  }

,

  null,
  {
    "name": "Appolo pharmacy",
    "phone": "+(91)-9873290263",
    "address": "shop no.2, sheks rai, Malviya Nagar, Delhi - 110017, phase-1",
    "loc": {
      "type": "Point",
      "coordinates": [
        77.218042,
        28.537242
      ]
    },
    "city": "Delhi",
    "mobile": "9873290263"
  },
  {
    "name": "S S Enterprises Medicine & Cos...",
    "phone": "+(91)-7838583383",
    "address": "124A/6, Main Road, Katwaria Sarai, Delhi - 110016",
    "loc": {
      "type": "Point",
      "coordinates": [
        77.1855,
        28.5405
      ]
    },
    "city": "Delhi",
    "mobile": "7838583383"
  },
  {
    "name": "Jai jagarnath Chemists Shop",
    "phone": "+(91)-9555803855",
    "address": "C-49, Bapu Park, Kotla Mubarakpur, Delhi - 110003",
    "loc": {
      "type": "Point",
      "coordinates": [
        77.221167,
        28.575333
      ]
    },
    "city": "Delhi",
    "mobile": "9555803855"
  },
  null,
  null,
  null,
  {
    "name": "Kanti Medicos",
    "phone": "+(91)-9899820107",
    "address": "62, Kotla Mubarakpur, Delhi - 110003, Bapu Park",
    "loc": {
      "type": "Point",
      "coordinates": [
        77.22234,
        28.57452
      ]
    },
    "city": "Delhi",
    "mobile": "9899820107"
  },
  {
    "name": "Maxwell Chemist",
    "phone": "+(91)-9560852134",
    "address": "E-2/15, Main Road, Malviya Nagar, Delhi - 110017, Near Shani Mandir",
    "loc": {
      "type": "Point",
      "coordinates": [
        77.20945,
        28.534005
      ]
    },
    "city": "Delhi",
    "mobile": "9560852134"
  },
  {
    "name": "ARN Medicos",
    "phone": "+(91)-9891672335",
    "address": "L-71,Malviya Nagar, Malviya Nagar, Malviya Nagar, Delhi - 110017, Near Sani Dev Mandir",
    "loc": {
      "type": "Point",
      "coordinates": [
        77.209862,
        28.534072
      ]
    },
    "city": "Delhi",
    "mobile": "9891672335"
  }

,

  {
    "name": "Malviya Chemist",
    "phone": "+(91)-9871612838",
    "address": "Shop No. 90/1, Main Market, Malviya Nagar, Delhi - 110017, Near Madan Mohan Malviya Hospital",
    "loc": {
      "type": "Point",
      "coordinates": [
        77.212967,
        28.534795
      ]
    },
    "city": "Delhi",
    "mobile": "9871612838"
  },
  null,
  null,
  {
    "name": "Aman Medicos",
    "phone": "+(91)-8130234540",
    "address": "Shop no 1468, Bhagwan gali, Kotla Mubarakpur, Delhi - 110003, Near Gurdwaras road",
    "loc": {
      "type": "Point",
      "coordinates": [
        77.225022,
        28.572533
      ]
    },
    "city": "Delhi",
    "mobile": "8130234540"
  },
  {
    "name": "Rawat chemist",
    "phone": "+(91)-8010124312",
    "address": "Shop No.1 , F-681/A, Bhola Nagar, Kotla Mubarakpur, Delhi - 110003, Near Mother Dairy",
    "loc": {
      "type": "Point",
      "coordinates": [
        77.223862,
        28.573692
      ]
    },
    "city": "Delhi",
    "mobile": "8010124312"
  },
  {
    "name": "Life Line Medicos",
    "phone": "+(91)-9910055699",
    "address": "Shop No 4, Sheikh Sarai, Delhi - 110017, Phase 1",
    "loc": {
      "type": "Point",
      "coordinates": [
        77.208969,
        28.533719
      ]
    },
    "city": "Delhi",
    "mobile": "9910055699"
  },
  null,
  null,
  {
    "name": "The Assault supplements",
    "phone": "+(91)-9811424373",
    "address": "JE-2, Khirki extension, Malviya Nagar, Delhi - 110017, Opp.trikona park, near akash hospital",
    "loc": {
      "type": "Point",
      "coordinates": [
        77.215483,
        28.535363
      ]
    },
    "city": "Delhi",
    "mobile": "9811424373"
  },
  null

,

  null,
  {
    "name": "Delhi medicos",
    "phone": "+(91)-8587977469",
    "address": "R 12, Main road, Khirki-Malviya Nagar, Delhi - 110017, Near mandir",
    "loc": {
      "type": "Point",
      "coordinates": [
        77.216462,
        28.53563
      ]
    },
    "city": "Delhi",
    "mobile": "8587977469"
  },
  null,
  null,
  {
    "name": "VIHAN MEDICOS",
    "phone": "+(91)-8826721212",
    "address": "Shop No. 321, Khirki Extn, Malviya Nagar, Delhi - 110017, Akash Hospital",
    "loc": {
      "type": "Point",
      "coordinates": [
        77.215003,
        28.534978
      ]
    },
    "city": "Delhi",
    "mobile": "8826721212"
  },
  null,
  {
    "name": "Shyam Medical",
    "phone": "+(91)-8527996228",
    "address": "260,Shop No-2,Main Market, Baba Gangnath Market, Munirka, Delhi - 110067, Near Baaratghar",
    "loc": {
      "type": "Point",
      "coordinates": [
        77.176637,
        28.555087
      ]
    },
    "city": "Delhi",
    "mobile": "8527996228"
  },
  null,
  {
    "name": "Sharma medicos",
    "phone": "+(91)-9654272993",
    "address": "Shop no-J-1/13,, Khirki extension,ground floor, Malviya Nagar, Delhi - 110017, Near Tikona park",
    "loc": {
      "type": "Point",
      "coordinates": [
        77.216645,
        28.53555
      ]
    },
    "city": "Delhi",
    "mobile": "9654272993"
  },
  {
    "name": "Disha medical store",
    "phone": "+(91)-8826334787",
    "address": "160b, Motivala chawk, Munirka, Delhi - 110067, Baba ganj vali gali",
    "loc": {
      "type": "Point",
      "coordinates": [
        77.176628,
        28.555078
      ]
    },
    "city": "Delhi",
    "mobile": "8826334787"
  }

,

  null,
  null,
  null,
  {
    "name": "AJIT CHEMIST",
    "phone": "+(91)-9910835842",
    "address": "Shop no.291A, Main Road, Malviya Nagar, Delhi - 110017, Opposite-Bus Stand",
    "loc": {
      "type": "Point",
      "coordinates": [
        77.203605,
        28.532792
      ]
    },
    "city": "Delhi",
    "mobile": "9910835842"
  },
  {
    "name": "Gaurav Medicos",
    "phone": "+(91)-8800909367",
    "address": "Shop no-58, DDA Market, Munirka, Delhi - 110067",
    "loc": {
      "type": "Point",
      "coordinates": [
        77.176437,
        28.555138
      ]
    },
    "city": "Delhi",
    "mobile": "8800909367"
  },
  {
    "name": "K R MEDICOS",
    "phone": "+(91)-9212887284",
    "address": "90/1., ., Malviya Nagar, Delhi - 110017, Opp. Government school.",
    "loc": {
      "type": "Point",
      "coordinates": [
        77.213325,
        28.534125
      ]
    },
    "city": "Delhi",
    "mobile": "9212887284"
  },
  {
    "name": "S M medical centre",
    "phone": "+(91)-9313655560",
    "address": "16, geetanjali, Gitanjali Enclave-Malviya Nagar, Delhi - 110017",
    "loc": {
      "type": "Point",
      "coordinates": [
        77.20347,
        28.53277
      ]
    },
    "city": "Delhi",
    "mobile": "9313655560"
  },
  {
    "name": "CHAWLA CHEMIST",
    "phone": "+(91)-8285829777",
    "address": "E-8/12, Main road, Malviya Nagar, Delhi - 110017, Near main market",
    "loc": {
      "type": "Point",
      "coordinates": [
        77.208267,
        28.533022
      ]
    },
    "city": "Delhi",
    "mobile": "8285829777"
  },
  {
    "name": "La- vie medicos",
    "phone": "+(91)-8802215612",
    "address": "T-7, Khirki extn., Malviya Nagar, Delhi - 110017, Opp. Fashion factory",
    "loc": {
      "type": "Point",
      "coordinates": [
        77.2145,
        28.534497
      ]
    },
    "city": "Delhi",
    "mobile": "8802215612"
  },
  {
    "name": "Sharma Chemist",
    "phone": "+(91)-8860482625",
    "address": "T 8, Khirki Extension, Malviya Nagar, Delhi - 110017, Near Krishna Mandir",
    "loc": {
      "type": "Point",
      "coordinates": [
        77.214387,
        28.534453
      ]
    },
    "city": "Delhi",
    "mobile": "8860482625"
  }

,

  {
    "name": "K R Medicos",
    "phone": "+(91)-9555380373",
    "address": "90/1A, Main Road, Malviya Nagar, Delhi - 110017, Oppsite Goverment School",
    "loc": {
      "type": "Point",
      "coordinates": [
        77.213378,
        28.534117
      ]
    },
    "city": "Delhi",
    "mobile": "9555380373"
  },
  {
    "name": "Lavie Medicos",
    "phone": "+(91)-9899367517",
    "address": "Shop No T 7, Krishna Mandir Road, Khirki-Malviya Nagar, Delhi - 110017, Near Akash hospital",
    "loc": {
      "type": "Point",
      "coordinates": [
        77.214478,
        28.534462
      ]
    },
    "city": "Delhi",
    "mobile": "9899367517"
  },
  {
    "name": "SIKANDER MEDICOS",
    "phone": "+(91)-9990769116",
    "address": "Malviya Nagar, Delhi - 110017, Near Malviya Hospital",
    "loc": {
      "type": "Point",
      "coordinates": [
        77.213408,
        28.534108
      ]
    },
    "city": "Delhi",
    "mobile": "9990769116"
  },
  {
    "name": "K.R Medicos",
    "phone": "+(91)-9958258408",
    "address": "Shop No 90/1 a, Government Street, Delhi - 110017, Near Malviya Nagar",
    "loc": {
      "type": "Point",
      "coordinates": [
        77.213295,
        28.534063
      ]
    },
    "city": "Delhi",
    "mobile": "9958258408"
  },
  null,
  null,
  {
    "name": "Viva Your Family Chemist",
    "phone": "+(91)-9911028572",
    "address": "D-2,, Panchsheel Enclave, Delhi - 110017, Dda Market, Near Masjid Moth",
    "loc": {
      "type": "Point",
      "coordinates": [
        77.229284,
        28.546274
      ]
    },
    "city": "Delhi",
    "mobile": "9911028572"
  },
  null,
  null,
  null

,

  {
    "name": "Sharma Medicos",
    "phone": "+(91)-9654985058",
    "address": "Shop No J-1/13, Khirki Extemtion, Malviya Nagar, Delhi - 110017",
    "loc": {
      "type": "Point",
      "coordinates": [
        77.216858,
        28.535175
      ]
    },
    "city": "Delhi",
    "mobile": "9654985058"
  },
  null,
  {
    "name": "Dp medical store",
    "phone": "+(91)-9818483908",
    "address": "Shop no 551/2, Subhash Market, Kotla Mubarakpur, Delhi - 110003, Near shitla mata mandir",
    "loc": {
      "type": "Point",
      "coordinates": [
        77.22422,
        28.574587
      ]
    },
    "city": "Delhi",
    "mobile": "9818483908"
  },
  {
    "name": "DUHOON HOMEPATHIC PHARMACY",
    "phone": "+(91)-8506876762",
    "address": "Shop No. E-7/1., Main road., Malviya Nagar, Delhi - 110017, Near Geeta mandir.",
    "loc": {
      "type": "Point",
      "coordinates": [
        77.207987,
        28.532733
      ]
    },
    "city": "Delhi",
    "mobile": "8506876762"
  },
  null,
  null,
  null,
  null,
  null,
  {
    "name": "d.p medical store",
    "phone": "+(91)-9250793150",
    "address": "551/2, Subhash Market, Kotla Mubarakpur, Delhi - 110003",
    "loc": {
      "type": "Point",
      "coordinates": [
        77.224333,
        28.574667
      ]
    },
    "city": "Delhi",
    "mobile": "9250793150"
  }

,

  {
    "name": "Future Pharmacy",
    "phone": "+(91)-8800949568",
    "address": "Shop no.2, 948B, Nehru Road, Arjun nagar, Kotla Mubarakpur, Delhi - 110003, OPP. Defence colony",
    "loc": {
      "type": "Point",
      "coordinates": [
        77.2285,
        28.57
      ]
    },
    "city": "Delhi",
    "mobile": "8800949568"
  },
  null,
  {
    "name": "Sri sai medico",
    "phone": "+(91)-9654113684",
    "address": "954/4 Arjuna nagar, Nehru road, Delhi - 110003",
    "loc": {
      "type": "Point",
      "coordinates": [
        77.226005,
        28.573267
      ]
    },
    "city": "Delhi",
    "mobile": "9654113684"
  },
  null,
  {
    "name": "24 to 12mini mart",
    "phone": "+(91)-8447478022",
    "address": "Shop no 8, Centre market, Shivalik-Malviya Nagar, Delhi - 110017, Arbindo college",
    "loc": {
      "type": "Point",
      "coordinates": [
        77.201247,
        28.5323
      ]
    },
    "city": "Delhi",
    "mobile": "8447478022"
  },
  null,
  null,
  {
    "name": "Recure medicos",
    "phone": "+(91)-9958317616",
    "address": "Shop no.952 A/B, Nehru road, Kotla Mubarakpur, Delhi - 110003, Arjun nagar",
    "loc": {
      "type": "Point",
      "coordinates": [
        77.226667,
        28.573
      ]
    },
    "city": "Delhi",
    "mobile": "9958317616"
  },
  {
    "name": "Choudhary medical store",
    "phone": "+(91)-8447533220",
    "address": "Shop No 943 -A, Nehru Road, Kotla Mubarakpur, Delhi - 110003, Arjun Nagar",
    "loc": {
      "type": "Point",
      "coordinates": [
        77.226958,
        28.57277
      ]
    },
    "city": "Delhi",
    "mobile": "8447533220"
  },
  null

,

  null,
  {
    "name": "Sanjivani Pharmacy",
    "phone": "+(91)-9650720739",
    "address": "E-3/12, Malviya Nagar, Delhi - 110017",
    "loc": {
      "type": "Point",
      "coordinates": [
        77.210963,
        28.53258
      ]
    },
    "city": "Delhi",
    "mobile": "9650720739"
  },
  null,
  null,
  null,
  {
    "name": "Shri Sai Homeo Pharmacy",
    "phone": "+(91)-9711145537",
    "address": "948 arjun nagar, Kotla Mubarakpur, Delhi - 110003",
    "loc": {
      "type": "Point",
      "coordinates": [
        77.22725,
        28.572528
      ]
    },
    "city": "Delhi",
    "mobile": "9711145537"
  },
  null,
  {
    "name": "Swastideep Medicos",
    "phone": "+(91)-9811921712",
    "address": "12, Aliganj, Kotla Mubarakpur, Delhi - 110003",
    "loc": {
      "type": "Point",
      "coordinates": [
        77.222283,
        28.577163
      ]
    },
    "city": "Delhi",
    "mobile": "9811921712"
  },
  {
    "name": "Vaatasalya chemist",
    "phone": "+(91)-8587998090",
    "address": "K5 a, Main road, Malviya Nagar, Delhi - 110017, Near khrishna mandir",
    "loc": {
      "type": "Point",
      "coordinates": [
        77.210228,
        28.5323
      ]
    },
    "city": "Delhi",
    "mobile": "8587998090"
  },
  {
    "name": "Swastideep medicos",
    "phone": "+(91)-8010052102",
    "address": "Shop no.12, Kotla Mubarakpur, Delhi - 110003, Aliganj",
    "loc": {
      "type": "Point",
      "coordinates": [
        77.222333,
        28.577167
      ]
    },
    "city": "Delhi",
    "mobile": "8010052102"
  }

]
