[

  
  
  
  
  
  
  
  
  
  
  
  
  
  
  
  
  
  
  
  
  

  
  
  
  
  
  
  
  
  
  
  
  
  
  
  
  
  
  
  
  
  
  
  
  
  
  
  
  null

,

  
  
  
  
  
  
  
  
  
  
  
  
  
  
  
  
  
  
  
  
  
  
  
  
  
  
  
  
  
  null

,

  
  
  
  
  
  
  
  
  
  
  
  
  
  
  
  
  
  
  
  
  
  
  
  
  
  
  
  
  
  null

,

  
  
  
  
  
  
  
  
  
  
  
  
  
  
  
  
  
  
  
  
  
  
  
  
  
  
  
  
  
  null

,

  
  
  
  
  
  
  
  
  
  
  
  
  
  
  
  
  
  
  {
    "name": "Mainland China Restaurant",
    "phone": "+(91)-22-39491234, +(91)-9320478304",
    "address": "Andheri Kurla Road, Andheri East, Mumbai - 400072, Sakinaka Junction",
    "loc": {
      "type": "Point",
      "coordinates": [
        72.8866667,
        19.10466065
      ]
    },
    "city": "Mumbai",
    "mobile": "9320478304"
  },
  {
    "name": "Mainland China Restaurant",
    "phone": "+(91)-22-39491234, +(91)-9320478304",
    "address": "Andheri Kurla Road, Andheri East, Mumbai - 400072, Sakinaka Junction",
    "loc": {
      "type": "Point",
      "coordinates": [
        72.8866667,
        19.10466065
      ]
    },
    "city": "Mumbai",
    "mobile": "9320478304"
  },
  {
    "name": "Mainland China Restaurant",
    "phone": "+(91)-22-39491234, +(91)-9320478304",
    "address": "Andheri Kurla Road, Andheri East, Mumbai - 400072, Sakinaka Junction",
    "loc": {
      "type": "Point",
      "coordinates": [
        72.8866667,
        19.10466065
      ]
    },
    "city": "Mumbai",
    "mobile": "9320478304"
  },
  
  
  
  
  
  
  {
    "name": "Sagar Family Restaurant",
    "phone": "+(91)-9967822444",
    "address": "Gate No 1, Marve Road, Kharodi, Malad West, Mumbai - 400064, Near Fire Brigade Office",
    "loc": {
      "type": "Point",
      "coordinates": [
        72.820555,
        19.195608
      ]
    },
    "city": "Mumbai",
    "mobile": "9967822444"
  },
  {
    "name": "Sagar Family Restaurant",
    "phone": "+(91)-9967822444",
    "address": "Gate No 1, Marve Road, Kharodi, Malad West, Mumbai - 400064, Near Fire Brigade Office",
    "loc": {
      "type": "Point",
      "coordinates": [
        72.820555,
        19.195608
      ]
    },
    "city": "Mumbai",
    "mobile": "9967822444"
  },
  {
    "name": "Sagar Family Restaurant",
    "phone": "+(91)-9967822444",
    "address": "Gate No 1, Marve Road, Kharodi, Malad West, Mumbai - 400064, Near Fire Brigade Office",
    "loc": {
      "type": "Point",
      "coordinates": [
        72.820555,
        19.195608
      ]
    },
    "city": "Mumbai",
    "mobile": "9967822444"
  }

,

  
  
  
  
  
  
  
  
  
  
  
  
  {
    "name": "Pangat Restaurant",
    "phone": "+(91)-22-65275511, +(91)-9930230891",
    "address": "Shree Gayatri Ganesh Apartment, Gorai Road, Mhb Colony-Borivali West, Mumbai - 400092, Near Gokhale College",
    "loc": {
      "type": "Point",
      "coordinates": [
        72.837142,
        19.231
      ]
    },
    "city": "Mumbai",
    "mobile": "9930230891"
  },
  {
    "name": "Pangat Restaurant",
    "phone": "+(91)-22-65275511, +(91)-9930230891",
    "address": "Shree Gayatri Ganesh Apartment, Gorai Road, Mhb Colony-Borivali West, Mumbai - 400092, Near Gokhale College",
    "loc": {
      "type": "Point",
      "coordinates": [
        72.837142,
        19.231
      ]
    },
    "city": "Mumbai",
    "mobile": "9930230891"
  },
  {
    "name": "Pangat Restaurant",
    "phone": "+(91)-22-65275511, +(91)-9930230891",
    "address": "Shree Gayatri Ganesh Apartment, Gorai Road, Mhb Colony-Borivali West, Mumbai - 400092, Near Gokhale College",
    "loc": {
      "type": "Point",
      "coordinates": [
        72.837142,
        19.231
      ]
    },
    "city": "Mumbai",
    "mobile": "9930230891"
  },
  
  
  
  
  
  
  
  
  
  
  
  
  
  
  null

,

  
  
  
  
  
  
  
  
  
  
  
  
  
  
  
  
  
  
  
  
  
  
  
  
  
  
  
  
  
  null

,

  
  
  
  
  
  
  
  
  
  
  
  
  
  
  
  
  
  
  
  
  
  
  
  
  
  
  
  {
    "name": "Shiv Sagar Restaurant",
    "phone": "+(91)-22-28110300, +(91)-9819977293",
    "address": "Shop No 1/2/3, Gaurav Garden Society, Mira Bhayander Road, Mira Road, Thane - 401107, Near Tunga Hospital",
    "loc": {
      "type": "Point",
      "coordinates": [
        72.862213,
        19.291963
      ]
    },
    "city": "Mumbai",
    "mobile": "9819977293"
  },
  {
    "name": "Shiv Sagar Restaurant",
    "phone": "+(91)-22-28110300, +(91)-9819977293",
    "address": "Shop No 1/2/3, Gaurav Garden Society, Mira Bhayander Road, Mira Road, Thane - 401107, Near Tunga Hospital",
    "loc": {
      "type": "Point",
      "coordinates": [
        72.862213,
        19.291963
      ]
    },
    "city": "Mumbai",
    "mobile": "9819977293"
  },
  {
    "name": "Shiv Sagar Restaurant",
    "phone": "+(91)-22-28110300, +(91)-9819977293",
    "address": "Shop No 1/2/3, Gaurav Garden Society, Mira Bhayander Road, Mira Road, Thane - 401107, Near Tunga Hospital",
    "loc": {
      "type": "Point",
      "coordinates": [
        72.862213,
        19.291963
      ]
    },
    "city": "Mumbai",
    "mobile": "9819977293"
  }

,

  
  
  
  
  
  
  
  
  
  
  
  
  
  
  
  
  
  
  
  
  
  
  
  
  
  
  
  
  
  null

,

  
  
  
  
  
  
  
  
  
  
  
  
  
  
  
  
  
  
  
  
  
  
  
  
  {
    "name": "Oh! Calcutta Restaurant",
    "phone": "+(91)-22-23539114, +(91)-9320478308",
    "address": "Hotel Rosewood, Tulsiwadi Lane, Tardeo, Mumbai - 400034, Opposite Mahindra Heights",
    "loc": {
      "type": "Point",
      "coordinates": [
        72.8136901666,
        18.9761771944
      ]
    },
    "city": "Mumbai",
    "mobile": "9320478308"
  },
  {
    "name": "Oh! Calcutta Restaurant",
    "phone": "+(91)-22-23539114, +(91)-9320478308",
    "address": "Hotel Rosewood, Tulsiwadi Lane, Tardeo, Mumbai - 400034, Opposite Mahindra Heights",
    "loc": {
      "type": "Point",
      "coordinates": [
        72.8136901666,
        18.9761771944
      ]
    },
    "city": "Mumbai",
    "mobile": "9320478308"
  },
  {
    "name": "Oh! Calcutta Restaurant",
    "phone": "+(91)-22-23539114, +(91)-9320478308",
    "address": "Hotel Rosewood, Tulsiwadi Lane, Tardeo, Mumbai - 400034, Opposite Mahindra Heights",
    "loc": {
      "type": "Point",
      "coordinates": [
        72.8136901666,
        18.9761771944
      ]
    },
    "city": "Mumbai",
    "mobile": "9320478308"
  },
  
  
  null

,

  
  
  
  {
    "name": "Bora Bora",
    "phone": "+(91)-22-42631000, +(91)-9167666737",
    "address": "155, Tamang Niwas, Waterfield Road, Bandra West, Mumbai - 400050, Near ICICI Bank",
    "loc": {
      "type": "Point",
      "coordinates": [
        72.834286,
        19.062029
      ]
    },
    "city": "Mumbai",
    "mobile": "9167666737"
  },
  {
    "name": "Bora Bora",
    "phone": "+(91)-22-42631000, +(91)-9167666737",
    "address": "155, Tamang Niwas, Waterfield Road, Bandra West, Mumbai - 400050, Near ICICI Bank",
    "loc": {
      "type": "Point",
      "coordinates": [
        72.834286,
        19.062029
      ]
    },
    "city": "Mumbai",
    "mobile": "9167666737"
  },
  {
    "name": "Bora Bora",
    "phone": "+(91)-22-42631000, +(91)-9167666737",
    "address": "155, Tamang Niwas, Waterfield Road, Bandra West, Mumbai - 400050, Near ICICI Bank",
    "loc": {
      "type": "Point",
      "coordinates": [
        72.834286,
        19.062029
      ]
    },
    "city": "Mumbai",
    "mobile": "9167666737"
  },
  
  
  
  
  
  
  
  
  
  
  
  
  
  
  
  
  
  
  
  
  
  
  
  null

,

  
  
  
  
  
  
  
  
  
  
  
  
  
  
  
  
  
  
  
  
  
  
  
  
  
  
  
  
  
  null

,

  
  
  
  
  
  
  
  
  
  
  
  
  
  
  
  
  
  
  
  
  
  
  
  
  
  
  
  
  
  null

,

  
  
  
  
  
  
  {
    "name": "China Gate Restaurant",
    "phone": "+(91)-22-42631000, +(91)-9167666737",
    "address": "G-1, Ground Floor, Akruti Star, Central Road, Andheri East, Mumbai - 400093, MIDC, Opposite MIDC Police Station",
    "loc": {
      "type": "Point",
      "coordinates": [
        72.870453,
        19.118373
      ]
    },
    "city": "Mumbai",
    "mobile": "9167666737"
  },
  {
    "name": "China Gate Restaurant",
    "phone": "+(91)-22-42631000, +(91)-9167666737",
    "address": "G-1, Ground Floor, Akruti Star, Central Road, Andheri East, Mumbai - 400093, MIDC, Opposite MIDC Police Station",
    "loc": {
      "type": "Point",
      "coordinates": [
        72.870453,
        19.118373
      ]
    },
    "city": "Mumbai",
    "mobile": "9167666737"
  },
  {
    "name": "China Gate Restaurant",
    "phone": "+(91)-22-42631000, +(91)-9167666737",
    "address": "G-1, Ground Floor, Akruti Star, Central Road, Andheri East, Mumbai - 400093, MIDC, Opposite MIDC Police Station",
    "loc": {
      "type": "Point",
      "coordinates": [
        72.870453,
        19.118373
      ]
    },
    "city": "Mumbai",
    "mobile": "9167666737"
  },
  
  
  
  
  
  
  
  
  
  
  
  
  
  
  
  
  
  
  
  
  null

,

  
  
  
  
  
  
  {
    "name": "Mainland China Restaurant",
    "phone": "+(91)-22-39491234, +(91)-9320478311",
    "address": "Unit No 308, 3rd Floor, Infiniti Mall 2, Malad West, Mumbai - 400064, Near Dmart",
    "loc": {
      "type": "Point",
      "coordinates": [
        72.833988,
        19.184907
      ]
    },
    "city": "Mumbai",
    "mobile": "9320478311"
  },
  {
    "name": "Mainland China Restaurant",
    "phone": "+(91)-22-39491234, +(91)-9320478311",
    "address": "Unit No 308, 3rd Floor, Infiniti Mall 2, Malad West, Mumbai - 400064, Near Dmart",
    "loc": {
      "type": "Point",
      "coordinates": [
        72.833988,
        19.184907
      ]
    },
    "city": "Mumbai",
    "mobile": "9320478311"
  },
  {
    "name": "Mainland China Restaurant",
    "phone": "+(91)-22-39491234, +(91)-9320478311",
    "address": "Unit No 308, 3rd Floor, Infiniti Mall 2, Malad West, Mumbai - 400064, Near Dmart",
    "loc": {
      "type": "Point",
      "coordinates": [
        72.833988,
        19.184907
      ]
    },
    "city": "Mumbai",
    "mobile": "9320478311"
  },
  
  
  
  
  
  
  
  
  
  
  
  
  
  
  
  
  
  
  
  
  null

,

  
  
  
  
  
  
  
  
  
  
  
  
  
  
  
  
  
  
  
  
  
  
  
  
  
  
  
  
  
  null

,

  
  
  
  
  
  
  
  
  
  
  
  
  
  
  
  
  
  
  
  
  
  
  
  
  
  
  
  
  
  null

,

  
  
  
  
  
  
  
  
  
  
  
  
  {
    "name": "Mainland China Restaurant",
    "phone": "+(91)-22-39491234, +(91)-7498437249",
    "address": "Ground & 1st Floor, Shalimar Maurya Park, Off New Link Road, Andheri West, Mumbai - 400053",
    "loc": {
      "type": "Point",
      "coordinates": [
        72.832299,
        19.14142
      ]
    },
    "city": "Mumbai",
    "mobile": "7498437249"
  },
  {
    "name": "Mainland China Restaurant",
    "phone": "+(91)-22-39491234, +(91)-7498437249",
    "address": "Ground & 1st Floor, Shalimar Maurya Park, Off New Link Road, Andheri West, Mumbai - 400053",
    "loc": {
      "type": "Point",
      "coordinates": [
        72.832299,
        19.14142
      ]
    },
    "city": "Mumbai",
    "mobile": "7498437249"
  },
  {
    "name": "Mainland China Restaurant",
    "phone": "+(91)-22-39491234, +(91)-7498437249",
    "address": "Ground & 1st Floor, Shalimar Maurya Park, Off New Link Road, Andheri West, Mumbai - 400053",
    "loc": {
      "type": "Point",
      "coordinates": [
        72.832299,
        19.14142
      ]
    },
    "city": "Mumbai",
    "mobile": "7498437249"
  },
  
  
  
  
  
  
  
  
  
  
  
  
  {
    "name": "Hometown Cafe",
    "phone": "+(91)-22-42631000, +(91)-9167666737",
    "address": "Juhu Tara Road, Juhu, Mumbai - 400049, Opposite Juhu Beach",
    "loc": {
      "type": "Point",
      "coordinates": [
        72.826833,
        19.0985
      ]
    },
    "city": "Mumbai",
    "mobile": "9167666737"
  },
  {
    "name": "Hometown Cafe",
    "phone": "+(91)-22-42631000, +(91)-9167666737",
    "address": "Juhu Tara Road, Juhu, Mumbai - 400049, Opposite Juhu Beach",
    "loc": {
      "type": "Point",
      "coordinates": [
        72.826833,
        19.0985
      ]
    },
    "city": "Mumbai",
    "mobile": "9167666737"
  },
  {
    "name": "Hometown Cafe",
    "phone": "+(91)-22-42631000, +(91)-9167666737",
    "address": "Juhu Tara Road, Juhu, Mumbai - 400049, Opposite Juhu Beach",
    "loc": {
      "type": "Point",
      "coordinates": [
        72.826833,
        19.0985
      ]
    },
    "city": "Mumbai",
    "mobile": "9167666737"
  }

,

  
  
  
  
  
  
  
  
  
  
  
  
  
  
  
  {
    "name": "Food Junxion",
    "phone": "+(91)-22-65222969, +(91)-9821364806",
    "address": "Shop No 1, A 2, Ostwal Orbit Building, Mira Bhayandar Road, Mira Road, Thane - 401107, Next To Mcdonalds",
    "loc": {
      "type": "Point",
      "coordinates": [
        72.8676984,
        19.287393
      ]
    },
    "city": "Mumbai",
    "mobile": "9821364806"
  },
  {
    "name": "Food Junxion",
    "phone": "+(91)-22-65222969, +(91)-9821364806",
    "address": "Shop No 1, A 2, Ostwal Orbit Building, Mira Bhayandar Road, Mira Road, Thane - 401107, Next To Mcdonalds",
    "loc": {
      "type": "Point",
      "coordinates": [
        72.8676984,
        19.287393
      ]
    },
    "city": "Mumbai",
    "mobile": "9821364806"
  },
  {
    "name": "Food Junxion",
    "phone": "+(91)-22-65222969, +(91)-9821364806",
    "address": "Shop No 1, A 2, Ostwal Orbit Building, Mira Bhayandar Road, Mira Road, Thane - 401107, Next To Mcdonalds",
    "loc": {
      "type": "Point",
      "coordinates": [
        72.8676984,
        19.287393
      ]
    },
    "city": "Mumbai",
    "mobile": "9821364806"
  },
  
  
  
  
  
  
  
  
  
  
  
  null

,

  
  
  
  
  
  
  
  
  
  
  
  
  
  
  
  
  
  
  
  
  
  
  
  
  
  
  
  
  
  null

,

  
  
  
  
  
  
  
  
  
  
  
  
  
  
  
  
  
  
  
  
  
  
  
  
  
  
  
  
  
  null

,

  
  
  
  
  
  
  
  
  
  {
    "name": "Mainland China Restaurant",
    "phone": "+(91)-22-39491234, +(91)-9323176837",
    "address": "1st Floor, Platinum Techno Park, Plot No 17 / 18, Sector No 30 A, Vashi, Navi Mumbai - 400703, Behind Raghuleela Mall, Beside Hawre",
    "loc": {
      "type": "Point",
      "coordinates": [
        72.995775,
        19.065306
      ]
    },
    "city": "Mumbai",
    "mobile": "9323176837"
  },
  {
    "name": "Mainland China Restaurant",
    "phone": "+(91)-22-39491234, +(91)-9323176837",
    "address": "1st Floor, Platinum Techno Park, Plot No 17 / 18, Sector No 30 A, Vashi, Navi Mumbai - 400703, Behind Raghuleela Mall, Beside Hawre",
    "loc": {
      "type": "Point",
      "coordinates": [
        72.995775,
        19.065306
      ]
    },
    "city": "Mumbai",
    "mobile": "9323176837"
  },
  {
    "name": "Mainland China Restaurant",
    "phone": "+(91)-22-39491234, +(91)-9323176837",
    "address": "1st Floor, Platinum Techno Park, Plot No 17 / 18, Sector No 30 A, Vashi, Navi Mumbai - 400703, Behind Raghuleela Mall, Beside Hawre",
    "loc": {
      "type": "Point",
      "coordinates": [
        72.995775,
        19.065306
      ]
    },
    "city": "Mumbai",
    "mobile": "9323176837"
  },
  
  
  
  
  
  
  
  
  
  
  
  
  
  
  
  
  
  null

,

  
  
  
  
  
  
  
  
  
  
  
  
  
  
  
  
  
  
  
  
  
  
  
  
  
  
  
  
  
  null

,

  
  
  
  
  
  
  
  
  
  
  
  
  
  
  
  
  
  
  
  
  
  
  
  
  
  
  
  
  
  null

,

  
  
  
  
  
  
  
  
  
  
  
  
  
  
  
  
  
  
  
  
  
  
  
  
  
  
  
  
  
  null

,

  
  
  
  
  
  
  
  
  
  
  
  
  
  
  
  
  
  
  
  
  
  {
    "name": "Global Fusion Restaurant",
    "phone": "+(91)-22-42631000, +(91)-9167666737",
    "address": "B-1, 1st Floor, Times Square Building, A K Road, Andheri East, Mumbai - 400059, Near Sakinaka Junction, Opposite Mittal Industrial Estate",
    "loc": {
      "type": "Point",
      "coordinates": [
        72.883245,
        19.108149
      ]
    },
    "city": "Mumbai",
    "mobile": "9167666737"
  },
  {
    "name": "Global Fusion Restaurant",
    "phone": "+(91)-22-42631000, +(91)-9167666737",
    "address": "B-1, 1st Floor, Times Square Building, A K Road, Andheri East, Mumbai - 400059, Near Sakinaka Junction, Opposite Mittal Industrial Estate",
    "loc": {
      "type": "Point",
      "coordinates": [
        72.883245,
        19.108149
      ]
    },
    "city": "Mumbai",
    "mobile": "9167666737"
  },
  {
    "name": "Global Fusion Restaurant",
    "phone": "+(91)-22-42631000, +(91)-9167666737",
    "address": "B-1, 1st Floor, Times Square Building, A K Road, Andheri East, Mumbai - 400059, Near Sakinaka Junction, Opposite Mittal Industrial Estate",
    "loc": {
      "type": "Point",
      "coordinates": [
        72.883245,
        19.108149
      ]
    },
    "city": "Mumbai",
    "mobile": "9167666737"
  },
  
  
  
  
  
  null

,

  
  
  
  
  
  
  
  
  
  
  
  
  
  
  
  
  
  
  
  
  
  
  
  
  
  
  
  
  
  null

,

  
  
  
  
  
  
  
  
  
  
  
  
  
  
  
  
  
  
  
  
  
  
  
  
  
  
  
  
  
  null

,

  
  
  
  
  
  
  
  
  
  
  
  
  
  
  
  
  
  
  
  
  
  
  
  
  
  
  
  
  
  null

,

  
  
  
  
  
  
  
  
  
  
  
  
  
  
  
  
  
  
  
  
  
  
  
  
  
  
  
  
  
  null

,

  
  
  
  
  
  
  
  
  
  
  
  
  
  
  
  
  
  
  
  
  
  
  
  
  {
    "name": "China Gate Restaurant",
    "phone": "+(91)-22-42631000, +(91)-9167666737",
    "address": "Royal Plaza, New Link Road, Andheri West, Mumbai - 400053, Next To City Mall",
    "loc": {
      "type": "Point",
      "coordinates": [
        72.831366,
        19.139845
      ]
    },
    "city": "Mumbai",
    "mobile": "9167666737"
  },
  {
    "name": "China Gate Restaurant",
    "phone": "+(91)-22-42631000, +(91)-9167666737",
    "address": "Royal Plaza, New Link Road, Andheri West, Mumbai - 400053, Next To City Mall",
    "loc": {
      "type": "Point",
      "coordinates": [
        72.831366,
        19.139845
      ]
    },
    "city": "Mumbai",
    "mobile": "9167666737"
  },
  {
    "name": "China Gate Restaurant",
    "phone": "+(91)-22-42631000, +(91)-9167666737",
    "address": "Royal Plaza, New Link Road, Andheri West, Mumbai - 400053, Next To City Mall",
    "loc": {
      "type": "Point",
      "coordinates": [
        72.831366,
        19.139845
      ]
    },
    "city": "Mumbai",
    "mobile": "9167666737"
  },
  
  
  null

,

  
  
  
  
  
  
  
  
  
  
  
  
  
  
  
  
  
  
  
  
  
  
  
  
  
  
  
  
  
  null

,

  
  
  
  
  
  
  
  
  
  
  
  
  
  
  
  
  
  
  
  
  
  
  
  
  
  
  
  
  
  null

,

  
  
  
  
  
  
  
  
  
  
  
  
  
  
  
  
  
  
  
  
  
  
  
  
  
  
  
  
  
  null

,

  
  
  
  
  
  
  
  
  
  
  
  
  
  
  
  
  
  
  
  
  
  
  
  
  
  
  
  
  
  null

,

  
  
  
  
  
  
  
  
  
  
  
  
  
  
  
  
  
  
  
  
  
  
  
  
  
  
  
  
  
  null

,

  
  
  
  
  
  
  
  
  
  
  
  
  
  
  
  
  
  
  
  
  
  
  
  
  
  
  
  
  
  null

,

  
  
  
  
  
  
  
  
  
  
  
  
  
  
  
  
  
  
  
  
  
  
  
  
  
  
  
  
  
  null

,

  
  
  
  
  
  
  
  
  
  
  
  
  
  
  
  
  
  
  
  
  
  
  
  
  
  
  
  
  
  null

,

  
  
  
  
  
  
  
  
  
  
  
  
  
  
  
  
  
  
  
  
  
  
  
  
  
  
  
  
  
  null

,

  
  
  
  
  
  
  
  
  
  {
    "name": "Mainland China Restaurant",
    "phone": "+(91)-22-39491234, +(91)-9320478303",
    "address": "City Park, 1st Floor, Central Avenue, Powai, Mumbai - 400076, Near D Mart, Hiranandani Business Park",
    "loc": {
      "type": "Point",
      "coordinates": [
        72.90904999,
        19.11559036
      ]
    },
    "city": "Mumbai",
    "mobile": "9320478303"
  },
  {
    "name": "Mainland China Restaurant",
    "phone": "+(91)-22-39491234, +(91)-9320478303",
    "address": "City Park, 1st Floor, Central Avenue, Powai, Mumbai - 400076, Near D Mart, Hiranandani Business Park",
    "loc": {
      "type": "Point",
      "coordinates": [
        72.90904999,
        19.11559036
      ]
    },
    "city": "Mumbai",
    "mobile": "9320478303"
  },
  {
    "name": "Mainland China Restaurant",
    "phone": "+(91)-22-39491234, +(91)-9320478303",
    "address": "City Park, 1st Floor, Central Avenue, Powai, Mumbai - 400076, Near D Mart, Hiranandani Business Park",
    "loc": {
      "type": "Point",
      "coordinates": [
        72.90904999,
        19.11559036
      ]
    },
    "city": "Mumbai",
    "mobile": "9320478303"
  },
  
  
  
  
  
  
  
  
  
  
  
  
  
  
  
  
  
  null

,

  
  
  
  
  
  
  
  
  
  
  
  
  
  
  
  
  
  
  
  
  
  
  
  
  
  
  
  
  
  null

,

  
  
  
  
  
  
  
  
  
  
  
  
  
  
  
  
  
  
  
  
  
  
  
  
  
  
  
  
  
  null

,

  
  
  
  
  
  
  
  
  
  
  
  
  
  
  
  
  
  
  
  
  
  {
    "name": "Kokan Katta Restaurant",
    "phone": "+(91)-22-64640464, +(91)-8452827696",
    "address": "Shop No 16 & 17, Silver Star Building, Plot No 50, Sector 18, Kamothe, Navi Mumbai - 410209, Near Gokul Dairy",
    "loc": {
      "type": "Point",
      "coordinates": [
        73.090645,
        19.01438
      ]
    },
    "city": "Mumbai",
    "mobile": "8452827696"
  },
  {
    "name": "Kokan Katta Restaurant",
    "phone": "+(91)-22-64640464, +(91)-8452827696",
    "address": "Shop No 16 & 17, Silver Star Building, Plot No 50, Sector 18, Kamothe, Navi Mumbai - 410209, Near Gokul Dairy",
    "loc": {
      "type": "Point",
      "coordinates": [
        73.090645,
        19.01438
      ]
    },
    "city": "Mumbai",
    "mobile": "8452827696"
  },
  {
    "name": "Kokan Katta Restaurant",
    "phone": "+(91)-22-64640464, +(91)-8452827696",
    "address": "Shop No 16 & 17, Silver Star Building, Plot No 50, Sector 18, Kamothe, Navi Mumbai - 410209, Near Gokul Dairy",
    "loc": {
      "type": "Point",
      "coordinates": [
        73.090645,
        19.01438
      ]
    },
    "city": "Mumbai",
    "mobile": "8452827696"
  },
  
  
  
  
  
  null

,

  
  
  
  
  
  
  
  
  
  
  
  
  
  
  
  
  
  
  
  
  
  
  
  
  
  
  
  
  
  null

,

  
  
  
  
  
  
  
  
  
  
  
  
  {
    "name": "Garden Court Restaurant",
    "phone": "+(91)-22-26770318, +(91)-9223112357",
    "address": "Veera Desai Road, Andheri West, Mumbai - 400058, Junction Of J P Road",
    "loc": {
      "type": "Point",
      "coordinates": [
        72.8376065,
        19.1272178
      ]
    },
    "city": "Mumbai",
    "mobile": "9223112357"
  },
  {
    "name": "Garden Court Restaurant",
    "phone": "+(91)-22-26770318, +(91)-9223112357",
    "address": "Veera Desai Road, Andheri West, Mumbai - 400058, Junction Of J P Road",
    "loc": {
      "type": "Point",
      "coordinates": [
        72.8376065,
        19.1272178
      ]
    },
    "city": "Mumbai",
    "mobile": "9223112357"
  },
  {
    "name": "Garden Court Restaurant",
    "phone": "+(91)-22-26770318, +(91)-9223112357",
    "address": "Veera Desai Road, Andheri West, Mumbai - 400058, Junction Of J P Road",
    "loc": {
      "type": "Point",
      "coordinates": [
        72.8376065,
        19.1272178
      ]
    },
    "city": "Mumbai",
    "mobile": "9223112357"
  },
  
  
  
  
  
  
  
  
  
  
  
  
  
  
  null

,

  
  
  
  
  
  
  
  
  
  
  
  
  
  
  
  
  
  
  
  
  
  
  
  
  
  
  
  
  
  null

,

  
  
  
  
  
  
  
  
  
  
  
  
  
  
  
  
  
  
  
  
  
  
  
  
  
  
  
  
  
  null

,

  
  
  
  
  
  
  
  
  
  
  
  
  
  
  
  
  
  
  
  
  
  
  
  
  
  
  
  
  
  null

]
